location,outbreak_number,start_weekday,duration,threshold,total_suspected_cases,attack_rate,total_deaths,cfr,temporal_scale,country,population,area,mean_R0,population_density,rural_urban,pop_cat,who_region,start_date,end_date,total_confirmed_cases,spatial_scale,location_period_id,time_to_peak..weeks.,latitude,longitude
afr::ago::cabinda,1,Sunday,7,0.100955851,61,0.062538281,,,weekly,AGO,975402.6,7050.124134,1.94,138.3525427,Rural settings,"Population <1,000,000",AFR,4/16/2017,6/3/2017,,admin1,15295,5.0,-5.786515,12.21127
afr::ben::collines::savalou,1,Monday,16,0.278344433,202,1.439297612,2.0,0.99009901,weekly,BEN,140346.2,2662.658461,2.06,52.70905077,Rural settings,"Population <1,000,000",AFR,9/24/2012,1/13/2013,,admin2,5445,4.0,7.944552898406926,2.109204053878841
afr::ben::donga::djougou,1,Monday,11,0.160479722,215,0.831574195,1.0,0.465116279,weekly,BEN,258545.8,4201.04414,1.8,61.54322387,Rural settings,"Population <1,000,000",AFR,9/10/2012,11/25/2012,,admin2,1355,5.0,9.471883773803825,1.529296040535087
afr::ben::oueme::aguegues,1,Monday,6,0.515226826,48,1.232645237,0.0,0.0,weekly,BEN,38940.6,146.2136566,1.87,266.3266955,Rural settings,"Population <100,000",AFR,1/11/2010,2/21/2010,,admin2,2959,3.0,6.428763866424561,2.59430909156805
afr::ben::oueme::bonou,1,Monday,6,0.669346484,59,1.482447998,2.0,3.389830508,weekly,BEN,39799.0,313.0287628,1.95,127.1416711,Rural settings,"Population <100,000",AFR,1/11/2010,2/21/2010,,admin2,8311,3.0,6.848169803619498,2.557924032211361
afr::civ::comoe::sudcomoe::aboisso,1,Monday,9,0.5053327,197,0.653855768,11.0,5.583756345,weekly,CIV,301289.7,4638.31413,1.69,64.95672599,Rural settings,"Population <1,000,000",AFR,5/21/2012,7/22/2012,,admin3,15284,3.0,6.249733,-3.173848
afr::civ::comoe::sudcomoe::adiake,1,Monday,9,1.304968545,128,1.559735964,8.0,6.25,weekly,CIV,82065.2,846.8428139,1.69,96.90724023,Rural settings,"Population <100,000",AFR,5/21/2012,7/22/2012,,admin3,15285,3.0,5.341024,-3.201863
afr::cmr::adamaoua::ngaoundereurbanhealthdistrict,1,Monday,15,0.233992369,49,0.759537159,2.0,4.081632653,weekly,CMR,64513.0,741.5119609,2.05,87.00196814,Rural settings,"Population <100,000",AFR,7/11/2011,10/23/2011,,admin2,13004,3.0,7.2623,13.7506
afr::cmr::centre::bafiahealthdistrict,1,Monday,8,0.110379275,46,0.319298203,3.0,6.52173913,weekly,CMR,144066.0,3485.082355,1.77,41.33790405,Rural settings,"Population <1,000,000",AFR,10/31/2011,12/25/2011,,admin2,13012,3.0,5.1766,11.1662
afr::cmr::centre::obalahealthdistrict,2,Monday,41,3.055054302,801,14.4565827,6.0,0.74906367,weekly,CMR,55407.3,627.6669084,2.38,88.27500583,Rural settings,"Population <100,000",AFR,3/14/2011,12/25/2011,,admin2,13035,8.0,4.3426,11.7232
afr::cmr::farnorth,1,Monday,22,0.126978531,328,0.072540357,11.0,3.353658537,weekly,CMR,4521621.0,34294.17995,1.96,131.8480572,Rural settings,"Population >1,000,000",AFR,7/8/2019,12/8/2019,,admin1,2570,9.0,13.077386856079158,14.085529327392692
afr::cmr::farnorth::bogohealthdistrict,1,Monday,6,0.097570163,15,0.107969268,1.0,6.666666667,weekly,CMR,138928.4,943.7755339,1.82,147.2049179,Rural settings,"Population <1,000,000",AFR,8/15/2011,9/25/2011,,admin2,13054,3.0,10.6879,14.7659
afr::cmr::farnorth::bourhahealthdistrict,1,Monday,21,0.163932389,55,0.246740225,2.0,3.636363636,weekly,CMR,222906.5,765.4304977,1.68,291.2171656,Rural settings,"Population <1,000,000",AFR,7/7/2014,11/30/2014,,admin2,13055,3.0,10.4167,13.5839
afr::cmr::farnorth::fotokolhealthdistrict,1,Monday,8,5.901896075,270,4.097602132,,,weekly,CMR,65892.2,363.0098685,2.74,181.5162774,Rural settings,"Population <100,000",AFR,10/15/2018,12/9/2018,,admin2,15273,3.0,12.56610530000006,14.308880400000078
afr::cmr::farnorth::goulfeyhealthdistrict,2,Monday,12,0.217995715,63,0.614966472,4.0,6.349206349,weekly,CMR,102444.6,1673.284775,1.75,61.22364915,Rural settings,"Population <1,000,000",AFR,6/27/2011,9/18/2011,,admin2,13057,3.0,12.674,14.7035
afr::cmr::farnorth::guerehealthdistrict,2,Monday,29,2.959536732,498,7.1817784,25.0,5.020080321,weekly,CMR,69342.2,944.763931,2.26,73.39632444,Rural settings,"Population <100,000",AFR,6/7/2010,12/26/2010,,admin2,13058,3.0,10.2742,15.3565
afr::cmr::farnorth::guerehealthdistrict,4,Monday,27,2.959536732,509,7.191166803,11.0,2.161100196,weekly,CMR,70781.3,944.763931,1.75,74.9195621,Rural settings,"Population <100,000",AFR,4/25/2011,10/30/2011,,admin2,13058,5.0,10.2742,15.3565
afr::cmr::farnorth::guidiguishealthdistrict,1,Monday,12,0.207061618,54,0.651551157,6.0,11.11111111,weekly,CMR,82879.1,1052.529165,2.04,78.74280614,Rural settings,"Population <100,000",AFR,9/20/2010,12/12/2010,,admin2,13059,3.0,10.3094,14.8571
afr::cmr::farnorth::hinahealthdistrict,1,Monday,22,0.397711176,54,0.258103351,10.0,18.51851852,weekly,CMR,209218.5,948.6867617,1.96,220.5348577,Rural settings,"Population <1,000,000",AFR,6/28/2010,11/28/2010,,admin2,13060,12.0,10.5496,13.9544
afr::cmr::farnorth::hinahealthdistrict,2,Monday,21,0.397711176,406,1.674037828,16.0,3.9408867,weekly,CMR,242527.4,948.6867617,2.09,255.645393,Rural settings,"Population <1,000,000",AFR,6/23/2014,11/16/2014,,admin2,13060,4.0,10.5496,13.9544
afr::cmr::farnorth::kaelehealthdistrict,1,Monday,22,0.50527796,307,1.830297137,25.0,8.143322476,weekly,CMR,167732.3,1024.82822,1.48,163.6686976,Rural settings,"Population <1,000,000",AFR,6/27/2011,11/27/2011,,admin2,13061,3.0,10.2688,14.6116
afr::cmr::farnorth::kolofatahealthdistrict,1,Monday,20,2.643418087,1416,10.66707095,63.0,4.449152542,weekly,CMR,132745.0,767.4268161,1.68,172.9741484,Rural settings,"Population <1,000,000",AFR,7/26/2010,12/12/2010,,admin2,13063,8.0,11.2567,14.2028
afr::cmr::farnorth::kousserihealthdistrict,2,Monday,20,1.353893281,276,1.584015362,18.0,6.52173913,weekly,CMR,174240.7,2927.572291,2.45,59.51712979,Rural settings,"Population <1,000,000",AFR,9/13/2010,1/30/2011,,admin2,13083,3.0,12.1541,14.8997
afr::cmr::farnorth::kousserihealthdistrict,4,Monday,29,1.353893281,869,4.905001751,31.0,3.567318757,weekly,CMR,177166.1,2927.572291,1.93,60.51638777,Rural settings,"Population <1,000,000",AFR,4/11/2011,10/30/2011,,admin2,13083,20.0,12.1541,14.8997
afr::cmr::farnorth::kozahealthdistrict,1,Monday,21,2.820862277,825,11.99152009,42.0,5.090909091,weekly,CMR,68798.6,626.9786722,1.85,109.7303673,Rural settings,"Population <100,000",AFR,6/14/2010,11/7/2010,,admin2,13064,9.0,11.1591,13.8933
afr::cmr::farnorth::kozahealthdistrict,2,Monday,17,2.820862277,146,1.716100518,12.0,8.219178082,weekly,CMR,85076.6,626.9786722,1.94,135.6929729,Rural settings,"Population <100,000",AFR,7/21/2014,11/16/2014,,admin2,13064,12.0,11.1591,13.8933
afr::cmr::farnorth::madahealthdistrict,1,Monday,20,3.980474713,628,11.98265062,26.0,4.140127389,weekly,CMR,52409.1,2362.267122,1.76,22.18593296,Rural settings,"Population <100,000",AFR,8/9/2010,12/26/2010,,admin2,13065,3.0,12.674,14.7035
afr::cmr::farnorth::madahealthdistrict,2,Monday,11,3.980474713,124,2.045877831,11.0,8.870967742,weekly,CMR,60609.7,2362.267122,1.74,25.65742859,Rural settings,"Population <100,000",AFR,9/19/2011,12/4/2011,,admin2,13065,3.0,12.674,14.7035
afr::cmr::farnorth::magahealthdistrict,1,Monday,13,1.872003664,222,1.390099649,4.0,1.801801802,weekly,CMR,159700.8,1738.857891,1.67,91.84235286,Rural settings,"Population <1,000,000",AFR,11/1/2010,1/30/2011,,admin2,13066,3.0,11.2435,14.9186
afr::cmr::farnorth::magahealthdistrict,2,Monday,16,1.872003664,1202,7.526575578,15.0,1.247920133,weekly,CMR,159700.8,1738.857891,1.53,91.84235286,Rural settings,"Population <1,000,000",AFR,7/4/2011,10/23/2011,,admin2,13066,7.0,11.2435,14.9186
afr::cmr::farnorth::mindifhealthdistrict,1,Monday,11,0.336426073,146,1.195680374,4.0,2.739726027,weekly,CMR,122106.2,986.3004425,2.79,123.8022358,Rural settings,"Population <1,000,000",AFR,9/12/2011,11/27/2011,,admin2,13072,3.0,10.5531,14.3991
afr::cmr::farnorth::mogodehealthdistrict,1,Monday,16,4.005801431,486,6.212742694,38.0,7.818930041,weekly,CMR,78226.3,758.0277016,2.06,103.1971521,Rural settings,"Population <100,000",AFR,7/19/2010,11/7/2010,,admin2,13073,4.0,10.7783,13.6598
afr::cmr::farnorth::mogodehealthdistrict,2,Monday,26,4.005801431,1198,12.16663234,55.0,4.590984975,weekly,CMR,98466.0,758.0277016,2.2,129.8976275,Rural settings,"Population <100,000",AFR,5/19/2014,11/16/2014,,admin2,13073,7.0,10.7783,13.6598
afr::cmr::farnorth::mokolohealthdistrict,1,Monday,18,1.939473042,1883,8.194145883,94.0,4.992033988,weekly,CMR,229798.2,943.4584514,1.51,243.5700265,Rural settings,"Population <1,000,000",AFR,7/5/2010,11/7/2010,,admin2,13074,8.0,11.0047,13.7925
afr::cmr::farnorth::mokolohealthdistrict,2,Monday,7,1.939473042,59,0.242923877,6.0,10.16949153,weekly,CMR,242874.4,943.4584514,1.78,257.4298843,Rural settings,"Population <1,000,000",AFR,9/8/2014,10/26/2014,,admin2,13074,3.0,11.0047,13.7925
afr::cmr::farnorth::morahealthdistrict,1,Monday,12,0.562413422,197,0.867496035,17.0,8.629441624,weekly,CMR,227090.4,4362.245165,1.51,52.05814699,Rural settings,"Population <1,000,000",AFR,8/30/2010,11/21/2010,,admin2,13075,4.0,10.9683368421053,14.3637684210526
afr::cmr::farnorth::morahealthdistrict,3,Monday,15,0.562413422,165,0.684323288,13.0,7.878787879,weekly,CMR,241114.1,4362.245165,1.62,55.2729365,Rural settings,"Population <1,000,000",AFR,8/8/2011,11/20/2011,,admin2,13075,3.0,10.9683368421053,14.3637684210526
afr::cmr::farnorth::rouahealthdistrict,1,Monday,13,1.591669835,232,7.63628932,38.0,16.37931034,weekly,CMR,30381.2,297.6236093,1.85,102.0792674,Rural settings,"Population <100,000",AFR,7/12/2010,10/10/2010,,admin2,13079,4.0,10.8348,13.9485
afr::cmr::farnorth::tokomberehealthdistrict,2,Monday,14,0.778116154,316,3.218388097,19.0,6.012658228,weekly,CMR,98185.8,586.8040993,2.71,167.322962,Rural settings,"Population <100,000",AFR,8/16/2010,11/21/2010,,admin2,13080,3.0,11.0094,14.2117
afr::cmr::farnorth::tokomberehealthdistrict,3,Monday,8,0.778116154,31,0.314725206,2.0,6.451612903,weekly,CMR,98498.6,586.8040993,1.81,167.8560189,Rural settings,"Population <100,000",AFR,8/15/2011,10/9/2011,,admin2,13080,4.0,11.0094,14.2117
afr::cmr::farnorth::velehealthdistrict,2,Monday,17,0.910059934,186,2.535346617,6.0,3.225806452,weekly,CMR,73362.8,1183.095347,1.92,62.00920339,Rural settings,"Population <100,000",AFR,9/27/2010,1/23/2011,,admin2,13081,3.0,10.7891,15.0753
afr::cmr::farnorth::velehealthdistrict,3,Monday,11,0.910059934,71,0.836250733,1.0,1.408450704,weekly,CMR,84902.8,1183.095347,1.72,71.76327776,Rural settings,"Population <100,000",AFR,8/8/2011,10/23/2011,,admin2,13081,3.0,10.7891,15.0753
afr::cmr::farnorth::yagouahealthdistrict,2,Monday,19,0.318503503,180,1.090862089,15.0,8.333333333,weekly,CMR,165007.1,1326.885262,2.1,124.3567208,Rural settings,"Population <1,000,000",AFR,8/16/2010,12/26/2010,,admin2,13082,5.0,10.2742,15.3565
afr::cmr::littoral::edeahealthdistrict,1,Monday,14,0.078050203,49,0.231079926,1.0,2.040816327,weekly,CMR,212047.8,5476.598179,2.12,38.71888955,Rural settings,"Population <1,000,000",AFR,6/20/2011,9/25/2011,,admin2,13092,4.0,4.1486,10.4167
afr::cmr::north,3,Monday,15,0.398866714,448,0.155382611,,,weekly,CMR,2883205.5,66355.07538,1.35,43.45116758,Rural settings,"Population >1,000,000",AFR,8/27/2018,12/9/2018,,admin1,5543,8.0,7.570377,15.55192
afr::cmr::north,4,Monday,5,0.398866714,136,0.045300441,,,weekly,CMR,3002178.3,66355.07538,1.26,45.2441397,Rural settings,"Population >1,000,000",AFR,10/28/2019,12/1/2019,,admin1,5543,3.0,7.570377,15.55192
afr::cmr::north::bibemihealthdistrict,2,Monday,29,1.876171411,1386,8.472343059,84.0,6.060606061,weekly,CMR,163591.1,2435.898967,1.68,67.15840937,Rural settings,"Population <1,000,000",AFR,4/25/2011,11/13/2011,,admin2,13122,5.0,9.6428,13.9307
afr::cmr::north::figuilhealthdistrict,2,Monday,15,1.434387795,123,1.398411829,8.0,6.504065041,weekly,CMR,87956.9,777.3752357,1.8,113.146002,Rural settings,"Population <100,000",AFR,8/23/2010,12/5/2010,,admin2,13109,10.0,9.635,13.9662
afr::cmr::north::figuilhealthdistrict,3,Monday,19,1.434387795,425,4.41202042,18.0,4.235294118,weekly,CMR,96327.8,777.3752357,1.05,123.9141609,Rural settings,"Population <100,000",AFR,7/18/2011,11/27/2011,,admin2,13109,3.0,9.635,13.9662
afr::cmr::north::figuilhealthdistrict,4,Monday,13,1.434387795,25,0.260124154,0.0,0.0,weekly,CMR,96108.0,777.3752357,1.91,123.6314145,Rural settings,"Population <100,000",AFR,8/11/2014,11/9/2014,,admin2,13109,4.0,9.635,13.9662
afr::cmr::north::garoua1healthdistrict,1,Monday,9,1.46800236,94,0.957155898,4.0,4.255319149,weekly,CMR,98207.6,429.4137305,1.52,228.7015832,Rural settings,"Population <100,000",AFR,8/29/2011,10/30/2011,,admin2,13110,3.0,9.3777,13.3848
afr::cmr::north::garoua1healthdistrict,3,Monday,12,1.46800236,119,1.047439189,,,weekly,CMR,113610.4,429.4137305,1.87,264.5709532,Rural settings,"Population <1,000,000",AFR,9/10/2018,12/2/2018,,admin2,13110,3.0,9.3777,13.3848
afr::cmr::north::garoua2healthdistrict,1,Monday,16,0.855237823,63,0.904863236,1.0,1.587301587,weekly,CMR,69623.8,103.6343114,1.92,671.8219001,Rural settings,"Population <100,000",AFR,8/29/2011,12/18/2011,,admin2,13111,3.0,9.4413,13.447
afr::cmr::north::golombehealthdistrict,1,Monday,7,0.687190068,22,0.288679667,0.0,0.0,weekly,CMR,76209.0,768.5359595,2.16,99.16126768,Rural settings,"Population <100,000",AFR,9/20/2010,11/7/2010,,admin2,13112,3.0,9.8894,13.7547
afr::cmr::north::golombehealthdistrict,3,Monday,11,0.687190068,91,1.164282593,4.0,4.395604396,weekly,CMR,78159.7,768.5359595,2.12,101.6994703,Rural settings,"Population <100,000",AFR,7/4/2011,9/18/2011,,admin2,13112,7.0,9.8894,13.7547
afr::cmr::north::guiderhealthdistrict,2,Monday,14,0.231180014,76,0.366273141,1.0,1.315789474,weekly,CMR,207495.4,1501.527603,1.96,138.1895342,Rural settings,"Population <1,000,000",AFR,8/22/2011,11/27/2011,,admin2,13113,12.0,10.1134,14.0718
afr::cmr::north::lagdohealthdistrict,1,Monday,28,0.578514873,468,2.943151831,14.0,2.991452991,weekly,CMR,159013.2,2420.910601,1.84,65.68321851,Rural settings,"Population <1,000,000",AFR,5/23/2011,12/4/2011,,admin2,13114,8.0,9.1888,13.6747
afr::cmr::north::mayooulohealthdistrict,2,Monday,15,0.31689036,163,1.196160179,5.0,3.067484663,weekly,CMR,136269.4,1170.931702,2.04,116.3768986,Rural settings,"Population <1,000,000",AFR,9/1/2014,12/14/2014,,admin2,13115,12.0,10.2552,13.7156
afr::cmr::north::mayooulohealthdistrict,3,Monday,6,0.31689036,7,0.049804999,1.0,14.28571429,weekly,CMR,140548.1,1170.931702,1.97,120.0309973,Rural settings,"Population <1,000,000",AFR,9/28/2015,11/8/2015,,admin2,13115,3.0,10.2552,13.7156
afr::cmr::north::pitoahealthdistrict,4,Monday,25,1.148806346,679,4.753945887,22.0,3.24005891,weekly,CMR,142828.7,1238.419173,2.13,115.331467,Rural settings,"Population <1,000,000",AFR,5/30/2011,11/20/2011,,admin2,13117,3.0,9.6198,13.7412
afr::cmr::north::pitoahealthdistrict,5,Monday,17,1.148806346,129,0.6133391,,,weekly,CMR,210324.1,1238.419173,1.78,169.8327227,Rural settings,"Population <1,000,000",AFR,8/6/2018,12/2/2018,,admin2,13117,8.0,9.6198,13.7412
afr::cmr::north::reyboubahealthdistrict,1,Monday,18,0.525226833,267,1.750198495,23.0,8.61423221,weekly,CMR,152554.1,8106.365968,1.57,18.8190492,Rural settings,"Population <1,000,000",AFR,7/18/2011,11/20/2011,,admin2,13119,6.0,8.8167,14.834
afr::cmr::north::tchollirehealthdistrict,1,Monday,14,0.546935539,367,2.1600755,3.0,0.817438692,weekly,CMR,169901.5,15708.09464,2.16,10.81617497,Rural settings,"Population <1,000,000",AFR,8/15/2011,11/20/2011,,admin2,13120,3.0,8.3212,15.288
afr::cmr::southwest::bueahealthdistrict,3,Monday,31,0.891426833,504,3.511146824,9.0,1.785714286,weekly,CMR,143542.8,469.3274514,2.04,305.8478671,Rural settings,"Population <1,000,000",AFR,2/14/2011,9/18/2011,,admin2,13156,19.0,4.2079,9.3292
afr::cmr::southwest::kumbahealthdistrict,2,Monday,40,0.382653105,308,1.617908487,3.0,0.974025974,weekly,CMR,190369.2,1209.232293,1.71,157.4298016,Rural settings,"Population <1,000,000",AFR,1/3/2011,10/9/2011,,admin2,13162,3.0,4.9754,9.4278
afr::cmr::southwest::muyukahealthdistrict,1,Monday,25,0.118718259,74,0.572791855,1.0,1.351351351,weekly,CMR,129191.8,513.2346081,1.87,251.7207491,Rural settings,"Population <1,000,000",AFR,1/3/2011,6/26/2011,,admin2,13167,5.0,4.3478,9.4522
afr::cmr::southwest::tikohealthdistrict,2,Monday,46,1.175303164,1003,5.240431062,5.0,0.498504487,weekly,CMR,191396.5,533.4919892,1.96,358.7617132,Rural settings,"Population <1,000,000",AFR,1/31/2011,12/18/2011,,admin2,13169,23.0,3.9393,9.3088
afr::cmr::southwest::tombelhealthdistrict,1,Monday,11,0.693735911,164,2.868414165,2.0,1.219512195,weekly,CMR,57174.4,809.257191,2.0,70.65046889,Rural settings,"Population <100,000",AFR,11/15/2010,1/30/2011,,admin2,13170,7.0,5.074,9.6945
afr::cmr::west::foumbanhealthdistrict,2,Monday,16,0.396674928,271,1.918502365,17.0,6.273062731,weekly,CMR,141256.0,1462.379607,2.29,96.5932507,Rural settings,"Population <1,000,000",AFR,3/28/2011,7/17/2011,,admin2,13183,9.0,6.0007,10.9315
afr::cmr::west::foumbothealthdistrict,2,Monday,25,1.514784332,640,7.064828512,31.0,4.84375,weekly,CMR,90589.6,741.0651116,2.25,122.24243,Rural settings,"Population <100,000",AFR,4/25/2011,10/16/2011,,admin2,13184,5.0,5.5995,10.6903
afr::cmr::west::kouoptamohealthdistrict,1,Monday,16,0.217241306,69,0.856258096,2.0,2.898550725,weekly,CMR,80583.2,436.7969619,2.24,184.4866312,Rural settings,"Population <100,000",AFR,5/9/2011,8/28/2011,,admin2,13187,3.0,5.7843,10.5972
afr::cmr::west::mifihealthdistrict,1,Monday,10,0.090628691,29,0.081902272,2.0,6.896551724,weekly,CMR,354080.5,415.5618636,2.08,852.0524404,Rural settings,"Population <1,000,000",AFR,5/30/2011,8/7/2011,,admin2,13191,3.0,5.6087,10.3927
afr::cod::bandundu::bolobohealthdistrict,1,Monday,21,3.883972669,1324,5.772575538,56.0,4.229607251,weekly,COD,229360.4,2442.089923,2.93,93.91971927,Rural settings,"Population <1,000,000",AFR,5/30/2011,10/23/2011,,admin2,14207,3.0,-4.3826306229999545,18.545316075000073
afr::cod::bandundu::bolobohealthdistrict,2,Monday,17,3.883972669,420,1.880991067,4.0,0.952380952,weekly,COD,223286.5,2442.089923,1.76,91.43254632,Rural settings,"Population <1,000,000",AFR,2/13/2012,6/10/2012,,admin2,14207,3.0,-4.3826306229999545,18.545316075000073
afr::cod::bandundu::bolobohealthdistrict,3,Monday,8,3.883972669,138,0.618039922,1.0,0.724637681,weekly,COD,223286.5,2442.089923,1.61,91.43254632,Rural settings,"Population <1,000,000",AFR,8/13/2012,10/7/2012,,admin2,14207,3.0,-4.3826306229999545,18.545316075000073
afr::cod::bandundu::bosobehealthdistrict,1,Monday,12,0.235458847,122,0.53191406,12.0,9.836065574,weekly,COD,229360.4,2442.089923,2.56,93.91971927,Rural settings,"Population <1,000,000",AFR,8/29/2011,11/20/2011,,admin2,14208,3.0,-4.3826306229999545,18.545316075000073
afr::cod::bandundu::ipamuhealthdistrict,1,Monday,9,0.372707232,102,0.444715034,10.0,9.803921569,weekly,COD,229360.4,2442.089923,1.53,93.91971927,Rural settings,"Population <1,000,000",AFR,8/22/2011,10/23/2011,,admin2,14209,3.0,-4.3826306229999545,18.545316075000073
afr::cod::bandundu::mokalahealthdistrict,1,Monday,5,0.139487148,16,0.099010514,0.0,0.0,weekly,COD,161599.0,3216.6983,1.94,50.23753704,Rural settings,"Population <1,000,000",AFR,10/3/2011,11/6/2011,,admin2,14752,3.0,-3.69039,18.94038
afr::cod::equateur::bangabolahealthdistrict,1,Monday,9,0.253781268,28,0.419221591,2.0,7.142857143,weekly,COD,66790.5,2479.416524,1.93,26.937991,Rural settings,"Population <100,000",AFR,10/24/2011,12/25/2011,,admin2,14770,3.0,2.079611,19.62553
afr::cod::equateur::basankusuhealthdistrict,1,Monday,6,0.086194067,12,0.065277863,1.0,8.333333333,weekly,COD,183829.5,10441.7158,1.97,17.60529625,Rural settings,"Population <1,000,000",AFR,10/24/2011,12/4/2011,,admin2,14215,3.0,1.073716,20.45252
afr::cod::equateur::bingahealthdistrict,1,Monday,17,0.809452831,73,0.516853895,1.0,1.369863014,weekly,COD,141239.1,4657.922099,1.96,30.32234052,Rural settings,"Population <1,000,000",AFR,2/18/2013,6/16/2013,,admin2,14217,4.0,2.390955,20.83136
afr::cod::equateur::lilangabobangihealthdistrict,1,Monday,28,3.598547033,120,6.14990083,4.0,3.333333333,weekly,COD,19512.5,5062.497321,1.6,3.854323027,Rural settings,"Population <100,000",AFR,3/19/2012,9/30/2012,,admin2,14246,6.0,0.9047068,18.08565
afr::cod::equateur::lilangabobangihealthdistrict,2,Monday,12,3.598547033,51,1.699712067,11.0,21.56862745,weekly,COD,30005.1,5062.497321,1.74,5.92693647,Rural settings,"Population <100,000",AFR,3/19/2018,6/10/2018,,admin2,14246,3.0,0.9047068,18.08565
afr::cod::equateur::lukolelahealthdistrict,2,Monday,19,1.982809495,504,4.765975052,12.0,2.380952381,weekly,COD,105749.6,7275.967367,1.59,14.53409487,Rural settings,"Population <1,000,000",AFR,6/13/2011,10/23/2011,,admin2,14252,6.0,-0.927214,17.48026
afr::cod::equateur::lukolelahealthdistrict,3,Monday,8,1.982809495,30,0.237932147,2.0,6.666666667,weekly,COD,126086.4,7275.967367,1.85,17.32915963,Rural settings,"Population <1,000,000",AFR,8/1/2016,9/25/2016,,admin2,14252,3.0,-0.927214,17.48026
afr::cod::equateur::mawuyahealthdistrict,1,Monday,20,0.120101892,14,0.129170152,2.0,14.28571429,weekly,COD,108384.2,3578.464974,1.91,30.28790299,Rural settings,"Population <1,000,000",AFR,2/20/2012,7/8/2012,,admin2,14254,3.0,3.600279,18.96358
afr::cod::equateur::wangatahealthdistrict,1,Monday,11,8.730291795,295,5.437816601,2.0,0.677966102,weekly,COD,54249.7,64.29256152,1.34,843.7943475,Rural settings,"Population <100,000",AFR,8/29/2011,11/13/2011,,admin2,14266,3.0,0.001588272,18.24467
afr::cod::equateur::wangatahealthdistrict,2,Monday,17,8.730291795,182,3.997906659,6.0,3.296703297,weekly,COD,45523.8,64.29256152,2.23,708.0725814,Rural settings,"Population <100,000",AFR,3/19/2012,7/15/2012,,admin2,14266,5.0,0.001588272,18.24467
afr::cod::equateur::wangatahealthdistrict,4,Monday,27,8.730291795,739,14.99659655,6.0,0.811907984,weekly,COD,49277.8,64.29256152,1.71,766.4619178,Rural settings,"Population <100,000",AFR,5/30/2016,12/4/2016,,admin2,14266,5.0,0.001588272,18.24467
afr::cod::hautkatanga,5,Monday,14,0.356455791,1172,0.11908208,,,weekly,COD,9841951.0,124189.9442,1.96,79.24917805,Rural settings,"Population >1,000,000",AFR,10/21/2019,1/26/2020,,admin1,14992,3.0,-11.88353,28.50966
afr::cod::hautkatanga::kampembahealthdistrict,1,Monday,12,57.25191017,281,22.40210543,4.0,1.423487544,weekly,COD,12543.5,726.6143498,1.87,17.2629401,Rural settings,"Population <100,000",AFR,3/7/2016,5/29/2016,,admin2,14276,4.0,-11.57356,27.67629
afr::cod::hautkatanga::katubahealthdistrict,1,Monday,22,41.21481056,422,51.18984088,6.0,1.421800948,weekly,COD,8243.8,206.9206907,1.56,39.84038509,Rural settings,"Population <10,000",AFR,1/14/2019,6/16/2019,,admin2,14278,7.0,-11.81186,27.66087
afr::cod::hautkatanga::kilwahealthdistrict,3,Monday,8,0.390445368,94,0.108094441,6.0,6.382978723,weekly,COD,869609.9,15041.32966,1.72,57.81469589,Rural settings,"Population <1,000,000",AFR,4/1/2019,5/26/2019,,admin2,14282,7.0,-8.283367,28.53205
afr::cod::hautlomami,3,Monday,22,10.99289541,2232,5.608564683,,,weekly,COD,397962.8,15344.58384,1.73,25.93506635,Rural settings,"Population <1,000,000",AFR,11/19/2018,4/21/2019,,admin1,14297,7.0,-8.372566351126055,25.67609864328236
afr::cod::ituri::angumuhealthdistrict,1,Monday,3,2.524208183,9,0.158100749,1.0,11.11111111,weekly,COD,56925.7,782.9955046,1.89,72.70246083,Rural settings,"Population <100,000",AFR,6/20/2016,7/10/2016,,admin2,14311,3.0,2.075164,31.02633
afr::cod::ituri::angumuhealthdistrict,2,Monday,3,2.524208183,39,0.651453343,3.0,7.692307692,weekly,COD,59866.1,782.9955046,2.13,76.45778251,Rural settings,"Population <100,000",AFR,9/4/2017,9/24/2017,,admin2,14311,3.0,2.075164,31.02633
afr::cod::ituri::fatakihealthdistrict,1,Monday,5,2.00053475,57,0.405894821,2.0,3.50877193,weekly,COD,140430.5,392.9585943,2.06,357.367168,Rural settings,"Population <1,000,000",AFR,11/13/2017,12/17/2017,,admin2,14315,3.0,2.02499,30.57871
afr::cod::ituri::nyarambehealthdistrict,1,Monday,9,1.732875628,163,0.756427129,4.0,2.45398773,weekly,COD,215486.7,572.9292759,2.37,376.1139622,Rural settings,"Population <1,000,000",AFR,5/23/2016,7/24/2016,,admin2,14328,3.0,2.288541,31.19932
afr::cod::ituri::nyarambehealthdistrict,2,Monday,12,1.732875628,183,0.778112968,4.0,2.18579235,weekly,COD,235184.4,572.9292759,1.84,410.4946455,Rural settings,"Population <1,000,000",AFR,5/8/2017,7/30/2017,,admin2,14328,4.0,2.288541,31.19932
afr::cod::ituri::tchomiahealthdistrict,1,Monday,7,10.57679243,70,1.39225785,1.0,1.428571429,weekly,COD,50278.0,929.6590887,1.65,54.08219057,Rural settings,"Population <100,000",AFR,4/27/2015,6/14/2015,,admin2,14332,3.0,1.378253,30.52516
afr::cod::kasai::ilebohealthdistrict,1,Monday,9,3.646901902,156,1.359427515,6.0,3.846153846,weekly,COD,114754.2,1425.562736,1.76,80.49747451,Rural settings,"Population <1,000,000",AFR,10/16/2017,12/17/2017,,admin2,14336,3.0,-4.12385,20.86581
afr::cod::kasai::ilebohealthdistrict,2,Monday,22,3.646901902,180,1.471211476,17.0,9.444444444,weekly,COD,122348.1,1425.562736,2.07,85.82442351,Rural settings,"Population <1,000,000",AFR,6/18/2018,11/18/2018,,admin2,14336,3.0,-4.12385,20.86581
afr::cod::katanga::ankorohealthdistrict,2,Monday,19,1.015981132,174,0.855468136,10.0,5.747126437,weekly,COD,203397.4,8286.647827,1.71,24.54519659,Rural settings,"Population <1,000,000",AFR,11/12/2012,3/24/2013,,admin2,14355,11.0,-6.486276,26.98905
afr::cod::katanga::ankorohealthdistrict,3,Monday,8,1.015981132,137,0.574534932,4.0,2.919708029,weekly,COD,238453.7,8286.647827,2.33,28.77565271,Rural settings,"Population <1,000,000",AFR,10/27/2014,12/21/2014,,admin2,14355,3.0,-6.486276,26.98905
afr::cod::katanga::bukamahealthdistrict,1,Monday,12,1.752368737,277,1.050845187,7.0,2.527075812,weekly,COD,263597.3,5494.055097,2.19,47.97864152,Rural settings,"Population <1,000,000",AFR,4/16/2012,7/8/2012,,admin2,14357,4.0,-8.961063,25.88008
afr::cod::katanga::bukamahealthdistrict,2,Monday,11,1.752368737,229,0.912858341,11.0,4.80349345,weekly,COD,250860.4,5494.055097,1.93,45.66033568,Rural settings,"Population <1,000,000",AFR,2/4/2013,4/21/2013,,admin2,14357,5.0,-8.961063,25.88008
afr::cod::katanga::bukamahealthdistrict,3,Monday,15,1.752368737,390,1.394543357,7.0,1.794871795,weekly,COD,279661.4,5494.055097,1.4,50.9025474,Rural settings,"Population <1,000,000",AFR,1/13/2014,4/27/2014,,admin2,14357,6.0,-8.961063,25.88008
afr::cod::katanga::bunkeyahealthdistrict,1,Monday,18,0.543555723,76,1.284037877,3.0,3.947368421,weekly,COD,59188.3,3414.436089,2.07,17.33472189,Rural settings,"Population <100,000",AFR,2/10/2014,6/15/2014,,admin2,14982,4.0,-9.921719,27.07496
afr::cod::katanga::butumbahealthdistrict,1,Monday,13,4.646014459,236,2.763094721,14.0,5.93220339,weekly,COD,85411.5,5478.209291,2.03,15.59113489,Rural settings,"Population <100,000",AFR,5/24/2010,8/22/2010,,admin2,14983,4.0,-8.47827,26.71356
afr::cod::katanga::butumbahealthdistrict,2,Monday,44,4.646014459,580,6.804279804,24.0,4.137931034,weekly,COD,85240.5,5478.209291,1.84,15.55992031,Rural settings,"Population <100,000",AFR,7/2/2012,5/5/2013,,admin2,14983,27.0,-8.47827,26.71356
afr::cod::katanga::butumbahealthdistrict::balongo,1,Monday,6,57.22514133,38,34.59618246,2.0,5.263157895,weekly,COD,1098.4,173.106702,1.82,6.345219378,Rural settings,"Population <10,000",AFR,5/24/2010,7/4/2010,,admin3,15009,3.0,-8.556202,26.55588
afr::cod::katanga::butumbahealthdistrict::balongo,2,Monday,27,57.22514133,64,49.98860619,0.0,0.0,weekly,COD,1280.3,173.106702,2.07,7.39601636,Rural settings,"Population <10,000",AFR,1/2/2012,7/8/2012,,admin3,15009,3.0,-8.556202,26.55588
afr::cod::katanga::butumbahealthdistrict::kilumbe,1,Monday,7,20.63629455,92,14.29800337,5.0,5.434782609,weekly,COD,6434.5,200.7960875,1.88,32.04494709,Rural settings,"Population <10,000",AFR,5/24/2010,7/11/2010,,admin3,15011,4.0,-8.471611,26.53832
afr::cod::katanga::butumbahealthdistrict::kilumbe,2,Monday,9,20.63629455,35,5.117256054,0.0,0.0,weekly,COD,6839.6,200.7960875,1.91,34.06241668,Rural settings,"Population <10,000",AFR,4/2/2012,6/3/2012,,admin3,15011,4.0,-8.471611,26.53832
afr::cod::katanga::kabondodiandahealthdistrict,2,Monday,52,2.729946421,745,3.478907264,48.0,6.44295302,weekly,COD,214147.7,4590.083034,1.66,46.65442834,Rural settings,"Population <1,000,000",AFR,4/30/2012,4/28/2013,,admin2,14361,40.0,-8.60738,26.43053
afr::cod::katanga::kabondodiandahealthdistrict,3,Monday,21,2.729946421,605,2.448517268,38.0,6.280991736,weekly,COD,247088.3,4590.083034,1.29,53.83089983,Rural settings,"Population <1,000,000",AFR,2/3/2014,6/29/2014,,admin2,14361,5.0,-8.60738,26.43053
afr::cod::katanga::kalemiehealthdistrict,1,Monday,6,6.089396381,132,0.611167126,2.0,1.515151515,weekly,COD,215980.2,9371.316036,1.51,23.04694444,Rural settings,"Population <1,000,000",AFR,3/8/2010,4/18/2010,,admin2,14364,3.0,-5.92936,29.1992
afr::cod::katanga::kalemiehealthdistrict,3,Monday,38,6.089396381,779,3.606812054,10.0,1.283697047,weekly,COD,215980.2,9371.316036,1.59,23.04694444,Rural settings,"Population <1,000,000",AFR,9/13/2010,6/5/2011,,admin2,14364,3.0,-5.92936,29.1992
afr::cod::katanga::kalemiehealthdistrict,5,Monday,34,6.089396381,734,3.096346633,6.0,0.817438692,weekly,COD,237053.6,9371.316036,1.48,25.29565742,Rural settings,"Population <1,000,000",AFR,10/17/2011,6/10/2012,,admin2,14364,12.0,-5.92936,29.1992
afr::cod::katanga::kalemiehealthdistrict,6,Monday,19,6.089396381,426,1.653964674,5.0,1.17370892,weekly,COD,257562.9,9371.316036,1.68,27.48417608,Rural settings,"Population <1,000,000",AFR,11/12/2012,3/24/2013,,admin2,14364,10.0,-5.92936,29.1992
afr::cod::katanga::kalemiehealthdistrict,7,Monday,16,6.089396381,391,1.412351096,6.0,1.534526854,weekly,COD,276843.3,9371.316036,1.6,29.54156054,Rural settings,"Population <1,000,000",AFR,11/4/2013,2/23/2014,,admin2,14364,7.0,-5.92936,29.1992
afr::cod::katanga::kalemiehealthdistrict::mutakuya,1,Monday,9,5.12772656,34,1.726601466,0.0,0.0,weekly,COD,19691.9,79.96225234,1.89,246.2649491,Rural settings,"Population <100,000",AFR,11/29/2010,1/30/2011,,admin3,15016,4.0,-6.042236,29.21393
afr::cod::katanga::kalemiehealthdistrict::mutakuya,2,Monday,20,5.12772656,71,3.090888901,0.0,0.0,weekly,COD,22970.7,79.96225234,1.98,287.2692968,Rural settings,"Population <100,000",AFR,10/24/2011,3/11/2012,,admin3,15016,10.0,-6.042236,29.21393
afr::cod::katanga::kansimbahealthdistrict::mpala,1,Monday,10,8.330500716,52,4.330067107,0.0,0.0,weekly,COD,12009.1,392.2587945,2.12,30.6152473,Rural settings,"Population <100,000",AFR,9/20/2010,11/28/2010,,admin3,15008,3.0,-6.6839,29.4964
afr::cod::katanga::kapangahealthdistrict,1,Monday,14,0.971210567,64,0.447409601,3.0,4.6875,weekly,COD,143045.7,12882.4364,1.86,11.10393217,Rural settings,"Population <1,000,000",AFR,3/1/2010,6/6/2010,,admin2,14946,9.0,-7.700714,21.96474
afr::cod::katanga::kapangahealthdistrict,2,Monday,27,0.971210567,131,0.915791527,3.0,2.290076336,weekly,COD,143045.7,12882.4364,2.26,11.10393217,Rural settings,"Population <1,000,000",AFR,9/20/2010,3/27/2011,,admin2,14946,23.0,-7.700714,21.96474
afr::cod::katanga::kapangahealthdistrict,3,Monday,14,0.971210567,41,0.225029604,0.0,0.0,weekly,COD,182198.3,12882.4364,2.1,14.1431554,Rural settings,"Population <1,000,000",AFR,9/10/2012,12/16/2012,,admin2,14946,3.0,-7.700714,21.96474
afr::cod::katanga::kapembahealthdistrict,1,Monday,15,73.80088803,148,14.05337597,2.0,1.351351351,weekly,COD,10531.3,726.6143498,1.88,14.49365816,Rural settings,"Population <100,000",AFR,2/3/2014,5/18/2014,,admin2,15024,8.0,-11.57356,27.67629
afr::cod::katanga::kapolowehealthdistrict,1,Monday,16,0.376140472,120,0.332545299,3.0,2.5,weekly,COD,360853.1,4669.418326,1.59,77.28009675,Rural settings,"Population <1,000,000",AFR,3/4/2013,6/23/2013,,admin2,14371,3.0,-10.84908,27.2937
afr::cod::katanga::kenyahealthdistrict,2,Monday,21,197.4042192,3183,465.1352822,36.0,1.131008483,weekly,COD,135364.0,312.381864,2.68,433.3286135,Rural settings,"Population <1,000,000",AFR,1/7/2013,6/2/2013,,admin2,14375,3.0,-11.98518,27.71629
afr::cod::katanga::kikulahealthdistrict,1,Monday,20,5.242390266,587,6.953763617,19.0,3.236797274,weekly,COD,84414.7,2968.048169,2.02,28.44114893,Rural settings,"Population <100,000",AFR,2/18/2013,7/7/2013,,admin2,14376,6.0,-10.83673,27.50532
afr::cod::katanga::kikulahealthdistrict,5,Monday,26,5.242390266,450,5.330823897,14.0,3.111111111,weekly,COD,84414.7,2968.048169,2.19,28.44114893,Rural settings,"Population <100,000",AFR,11/25/2013,5/25/2014,,admin2,14376,13.0,-10.83673,27.50532
afr::cod::katanga::kilwahealthdistrict,1,Monday,10,0.494694556,188,0.327060114,6.0,3.191489362,weekly,COD,574817.9,15041.32966,2.12,38.21589667,Rural settings,"Population <1,000,000",AFR,2/3/2014,4/13/2014,,admin2,14378,5.0,-8.283367,28.53205
afr::cod::katanga::kinkondjahealthdistrict,1,Monday,35,12.12682178,1082,7.641020345,28.0,2.58780037,weekly,COD,141604.1,4170.821978,1.57,33.9511254,Rural settings,"Population <1,000,000",AFR,5/17/2010,1/16/2011,,admin2,14380,5.0,-8.507860171677109,26.107046926094604
afr::cod::katanga::kinkondjahealthdistrict,3,Monday,24,12.12682178,1080,7.052174665,12.0,1.111111111,weekly,COD,153144.3,4170.821978,1.46,36.71801405,Rural settings,"Population <1,000,000",AFR,12/19/2011,6/3/2012,,admin2,14380,5.0,-8.507860171677109,26.107046926094604
afr::cod::katanga::kinkondjahealthdistrict,4,Monday,16,12.12682178,633,3.86834784,22.0,3.475513428,weekly,COD,163635.8,4170.821978,1.52,39.23346546,Rural settings,"Population <1,000,000",AFR,8/13/2012,12/2/2012,,admin2,14380,5.0,-8.507860171677109,26.107046926094604
afr::cod::katanga::kinkondjahealthdistrict,5,Monday,13,12.12682178,848,4.696890379,21.0,2.476415094,weekly,COD,180545.0,4170.821978,1.57,43.28763034,Rural settings,"Population <1,000,000",AFR,2/24/2014,5/25/2014,,admin2,14380,6.0,-8.507860171677109,26.107046926094604
afr::cod::katanga::kinkondjahealthdistrict,7,Monday,17,12.12682178,803,4.447645016,6.0,0.747198007,weekly,COD,180545.0,4170.821978,1.98,43.28763034,Rural settings,"Population <1,000,000",AFR,9/1/2014,12/28/2014,,admin2,14380,6.0,-8.507860171677109,26.107046926094604
afr::cod::katanga::kisangahealthdistrict,1,Monday,18,14.02203618,116,21.97818871,1.0,0.862068966,weekly,COD,5278.0,143.2842653,1.83,36.83586602,Rural settings,"Population <10,000",AFR,3/4/2013,7/7/2013,,admin2,14382,6.0,-11.85881,27.57794
afr::cod::katanga::kitengehealthdistrict,1,Monday,28,0.51088456,102,1.078616397,15.0,14.70588235,weekly,COD,94565.6,4657.769592,2.25,20.30276469,Rural settings,"Population <100,000",AFR,9/10/2012,3/24/2013,,admin2,14383,5.0,-6.765178,26.08426
afr::cod::katanga::kongolohealthdistrict,2,Monday,16,0.915282252,244,1.137892769,2.0,0.819672131,weekly,COD,214431.5,8120.5504,1.42,26.40603031,Rural settings,"Population <1,000,000",AFR,10/18/2010,2/6/2011,,admin2,14385,3.0,-5.369837,27.01514
afr::cod::katanga::kongolohealthdistrict,3,Monday,11,0.915282252,76,0.350220529,2.0,2.631578947,weekly,COD,217006.1,8120.5504,1.66,26.72307779,Rural settings,"Population <1,000,000",AFR,9/26/2011,12/11/2011,,admin2,14385,3.0,-5.369837,27.01514
afr::cod::katanga::lubudihealthdistrict,1,Monday,5,0.177473742,16,0.107199987,2.0,12.5,weekly,COD,149253.8,7670.639157,2.01,19.45780488,Rural settings,"Population <1,000,000",AFR,11/24/2014,12/28/2014,,admin2,14389,5.0,-10.2291999526394,25.7063298510004
afr::cod::katanga::lukafuhealthdistrict,1,Monday,18,0.265611743,132,0.62110792,9.0,6.818181818,weekly,COD,212523.5,7384.218389,1.83,28.78077121,Rural settings,"Population <1,000,000",AFR,2/24/2014,6/29/2014,,admin2,14391,9.0,-9.983675,27.49618
afr::cod::katanga::malembankuluhealthdistrict,3,Monday,39,2.186593895,328,1.298104521,8.0,2.43902439,weekly,COD,252676.1,1962.800933,1.66,128.7324128,Rural settings,"Population <1,000,000",AFR,6/28/2010,3/27/2011,,admin2,14393,30.0,-7.711398,26.81103
afr::cod::katanga::malembankuluhealthdistrict,5,Monday,24,2.186593895,522,1.840109631,22.0,4.214559387,weekly,COD,283678.8,1962.800933,1.57,144.5275449,Rural settings,"Population <1,000,000",AFR,8/27/2012,2/10/2013,,admin2,14393,4.0,-7.711398,26.81103
afr::cod::katanga::malembankuluhealthdistrict,6,Monday,18,2.186593895,436,1.274455534,7.0,1.605504587,weekly,COD,342106.9,1962.800933,1.71,174.2952605,Rural settings,"Population <1,000,000",AFR,8/25/2014,12/28/2014,,admin2,14393,6.0,-7.711398,26.81103
afr::cod::katanga::mitwabahealthdistrict,1,Monday,4,0.069299849,36,0.162893475,2.0,5.555555556,weekly,COD,221003.3,13847.25475,2.35,15.96008046,Rural settings,"Population <1,000,000",AFR,10/27/2014,11/23/2014,,admin2,14397,3.0,-8.078387,27.64174
afr::cod::katanga::mobahealthdistrict::mulungushi,1,Monday,17,9.458023127,30,3.256121976,0.0,0.0,weekly,COD,9213.4,591.9924181,2.08,15.563375,Rural settings,"Population <10,000",AFR,11/1/2010,2/27/2011,,admin3,15018,6.0,-7.5942,29.5699
afr::cod::katanga::mukangahealthdistrict,2,Monday,12,0.554295292,52,0.11310348,2.0,3.846153846,weekly,COD,459756.0,4459.354341,1.71,103.0992303,Rural settings,"Population <1,000,000",AFR,1/11/2010,4/4/2010,,admin2,14400,3.0,-7.962261,27.44038
afr::cod::katanga::mukangahealthdistrict,3,Monday,10,0.554295292,76,0.128296865,3.0,3.947368421,weekly,COD,592376.1,4459.354341,1.56,132.838984,Rural settings,"Population <1,000,000",AFR,12/24/2012,3/3/2013,,admin2,14400,3.0,-7.962261,27.44038
afr::cod::katanga::mulongohealthdistrict,1,Monday,16,0.496712268,225,0.811701946,6.0,2.666666667,weekly,COD,277195.3,4200.032221,1.94,65.99837463,Rural settings,"Population <1,000,000",AFR,9/10/2012,12/30/2012,,admin2,14401,6.0,-7.838707,26.97001
afr::cod::katanga::nyembahealthdistrict,2,Monday,26,5.387825234,818,3.666232245,3.0,0.366748166,weekly,COD,223117.3,8154.134315,1.7,27.36247545,Rural settings,"Population <1,000,000",AFR,8/15/2011,2/12/2012,,admin2,14403,20.0,-4.998788,29.1205
afr::cod::katanga::nyembahealthdistrict,3,Monday,15,5.387825234,504,1.780271571,1.0,0.198412698,weekly,COD,283102.9,8154.134315,1.19,34.71894,Rural settings,"Population <1,000,000",AFR,8/11/2014,11/23/2014,,admin2,14403,3.0,-4.998788,29.1205
afr::cod::katanga::nyembahealthdistrict::lubuye,2,Monday,16,5.317633607,85,2.630969791,0.0,0.0,weekly,COD,32307.5,174.9544482,1.87,184.6623526,Rural settings,"Population <100,000",AFR,9/13/2010,1/2/2011,,admin3,15021,4.0,-5.812235,29.26716
afr::cod::katanga::nyembahealthdistrict::lubuye,4,Monday,23,5.317633607,72,1.978295208,0.0,0.0,weekly,COD,36395.0,174.9544482,1.76,208.0255768,Rural settings,"Population <100,000",AFR,10/10/2011,3/18/2012,,admin3,15021,3.0,-5.812235,29.26716
afr::cod::katanga::nyembahealthdistrict::tabacongo,1,Monday,19,12.84556126,86,9.881657767,2.0,2.325581395,weekly,COD,8703.0,249.7799254,1.72,34.84267195,Rural settings,"Population <10,000",AFR,9/20/2010,1/30/2011,,admin3,15022,3.0,-5.733508,29.27831
afr::cod::katanga::nyembahealthdistrict::undugu,2,Monday,26,16.73827249,238,8.724369533,0.0,0.0,weekly,COD,27279.9,43.4758356,1.62,627.4727012,Rural settings,"Population <100,000",AFR,8/29/2011,2/26/2012,,admin3,15023,18.0,-5.846391,29.15735
afr::cod::katanga::nyembahealthdistrict::undugu,3,Monday,13,16.73827249,75,2.578826638,0.0,0.0,weekly,COD,29083.0,43.4758356,1.94,668.9463146,Rural settings,"Population <100,000",AFR,8/13/2012,11/11/2012,,admin3,15023,3.0,-5.846391,29.15735
afr::cod::katanga::pwetohealthdistrict,1,Monday,26,2.162757117,654,3.219415933,35.0,5.351681957,weekly,COD,203142.4,9492.313096,1.72,21.40072688,Rural settings,"Population <1,000,000",AFR,2/18/2013,8/18/2013,,admin2,14406,3.0,-7.622685,28.5481
afr::cod::kinshasa::malukuihealthdistrict,3,Monday,43,1.168850974,146,2.533874539,4.0,2.739726027,weekly,COD,57619.3,5394.379622,1.8,10.68135801,Rural settings,"Population <100,000",AFR,9/5/2011,7/1/2012,,admin2,14455,5.0,-3.930694,15.95067
afr::cod::kinshasa::malukuiihealthdistrict,5,Monday,79,0.529225882,356,2.40786233,5.0,1.404494382,weekly,COD,147849.0,3339.400769,2.09,44.2741109,Rural settings,"Population <1,000,000",AFR,6/27/2011,12/30/2012,,admin2,14456,3.0,-3.955803,15.907
afr::cod::kinshasa::montngafulaihealthdistrict,1,Monday,15,0.044761928,11,0.048819565,0.0,0.0,weekly,COD,225319.5,399.5076778,1.97,563.9929156,Rural settings,"Population <1,000,000",AFR,7/18/2011,10/30/2011,,admin2,14460,3.0,-4.395018,15.30769
afr::cod::kinshasa::nselehealthdistrict,1,Monday,45,0.165346185,43,0.305618551,0.0,0.0,weekly,COD,140698.3,821.9405211,1.93,171.1782013,Rural settings,"Population <1,000,000",AFR,9/19/2011,7/29/2012,,admin2,14466,27.0,-4.253331,15.5576
afr::cod::kongocentral,1,Monday,3,0.138048127,74,0.024337946,3.0,4.054054054,weekly,COD,3040519.5,54118.17999,1.5,56.18295923,Rural settings,"Population >1,000,000",AFR,12/12/2016,1/1/2017,,admin1,3457,3.0,-6.021805763244572,12.45763969421398
afr::cod::kongocentral::bomabunguhealthdistrict,1,Monday,41,0.36544829,63,1.152059743,3.0,4.761904762,weekly,COD,54684.7,2595.452524,1.91,21.06942797,Rural settings,"Population <100,000",AFR,2/13/2012,11/25/2012,,admin2,14472,4.0,-5.49015,12.90353
afr::cod::kongocentral::kitonahealthdistrict,1,Monday,31,2.558701692,96,6.96590791,4.0,4.166666667,weekly,COD,13781.4,148.3766923,1.9,92.88116473,Rural settings,"Population <100,000",AFR,3/26/2012,10/28/2012,,admin2,14481,18.0,-5.922849,12.48113
afr::cod::kongocentral::moandahealthdistrict,5,Monday,43,3.962882967,941,14.62210192,4.0,0.425079702,weekly,COD,64354.6,1221.46786,1.55,52.6862819,Rural settings,"Population <100,000",AFR,1/23/2012,11/18/2012,,admin2,14489,3.0,-5.672869,12.63225
afr::cod::lomami,1,Monday,9,0.7035864,573,0.150132053,,,weekly,COD,3816640.0,54123.66022,1.39,70.51703422,Rural settings,"Population >1,000,000",AFR,10/15/2018,12/16/2018,,admin1,14507,3.0,-7.983483,23.50257
afr::cod::lualaba::dilalahealthdistrict,1,Monday,3,0.072539359,11,0.079331989,0.0,0.0,weekly,COD,138657.8,3635.266045,2.0,38.14240781,Rural settings,"Population <1,000,000",AFR,12/9/2019,12/29/2019,,admin2,14517,3.0,-10.85899,25.33436
afr::cod::lualaba::fungurumehealthdistrict,1,Monday,13,0.599481131,172,0.518897426,5.0,2.906976744,weekly,COD,331472.1,3543.701339,2.18,93.53838495,Rural settings,"Population <1,000,000",AFR,10/30/2017,1/28/2018,,admin2,14518,5.0,-10.47324,26.54912
afr::cod::lualaba::kanzenzehealthdistrict,1,Monday,6,7.586435822,42,0.601160858,0.0,0.0,weekly,COD,69864.8,3716.718394,1.86,18.79744242,Rural settings,"Population <100,000",AFR,12/24/2018,2/3/2019,,admin2,14967,3.0,-9.507495,25.51667
afr::cod::lualaba::manikahealthdistrict,1,Monday,8,2.092071785,109,0.929816204,9.0,8.256880734,weekly,COD,117227.5,7267.15842,2.03,16.13113314,Rural settings,"Population <1,000,000",AFR,2/4/2019,3/31/2019,,admin2,14969,5.0,-10.88168,26.20474
afr::cod::lualaba::manikahealthdistrict,2,Monday,5,2.092071785,120,1.023650867,7.0,5.833333333,weekly,COD,117227.5,7267.15842,2.33,16.13113314,Rural settings,"Population <1,000,000",AFR,11/25/2019,12/29/2019,,admin2,14969,4.0,-10.88168,26.20474
afr::cod::maindombe::niokihealthdistrict,1,Monday,3,0.513398406,12,0.160961055,0.0,0.0,weekly,COD,74552.2,6430.034082,1.84,11.59437089,Rural settings,"Population <100,000",AFR,9/4/2017,9/24/2017,,admin2,14537,3.0,-2.532739,18.04672
afr::cod::maniema::kailohealthdistrict,1,Monday,4,1.020194382,31,0.230117457,3.0,9.677419355,weekly,COD,134713.8,22776.84676,1.83,5.914506139,Rural settings,"Population <1,000,000",AFR,10/19/2015,11/15/2015,,admin2,14548,3.0,-1.840116,25.91034
afr::cod::maniema::kailohealthdistrict,5,Monday,5,1.020194382,45,0.283211823,3.0,6.666666667,weekly,COD,158891.7,22776.84676,1.67,6.976018308,Rural settings,"Population <1,000,000",AFR,9/30/2019,11/3/2019,,admin2,14548,4.0,-1.840116,25.91034
afr::cod::maniema::lubutuhealthdistrict,1,Monday,8,0.564044482,106,0.948591819,1.0,0.943396226,weekly,COD,111744.6,10558.08445,2.72,10.58379487,Rural settings,"Population <1,000,000",AFR,8/29/2011,10/23/2011,,admin2,14554,3.0,-0.03499999,26.06706
afr::cod::mongala::bumbahealthdistrict,1,Monday,7,5.081770285,162,1.620421436,2.0,1.234567901,weekly,COD,99974.0,1428.453505,1.56,69.98757723,Rural settings,"Population <100,000",AFR,4/18/2016,6/5/2016,,admin2,14233,3.0,2.401458,22.91655
afr::cod::nordkivu,3,Monday,34,1.777356257,15871,1.932710594,,,weekly,COD,8211783.0,58699.33483,1.74,139.8956738,Rural settings,"Population >1,000,000",AFR,6/26/2017,2/18/2018,,admin1,7255,13.0,0.4073501,29.95951
afr::cod::nordkivu,4,Monday,5,1.777356257,1242,0.138502533,,,weekly,COD,8967345.0,58699.33483,1.8,152.767404,Rural settings,"Population >1,000,000",AFR,12/23/2019,1/26/2020,,admin1,7255,3.0,0.4073501,29.95951
afr::cod::nordkivu::kibuahealthdistrict,2,Monday,29,6.068042554,1260,14.2126669,35.0,2.777777778,weekly,COD,88653.3,2798.800559,2.37,31.67546173,Rural settings,"Population <100,000",AFR,11/13/2017,6/3/2018,,admin2,14586,3.0,-0.9462879,28.65481
afr::cod::nordkivu::kirotshehealthdistrict,1,Monday,18,3.36056298,576,1.268234134,3.0,0.520833333,weekly,COD,454174.8,1050.024142,2.27,432.5374835,Rural settings,"Population <1,000,000",AFR,10/18/2010,2/20/2011,,admin2,14587,6.0,-1.332278,29.07111
afr::cod::nordkivu::kirotshehealthdistrict,3,Monday,30,3.36056298,598,1.203106449,11.0,1.839464883,weekly,COD,497046.6,1050.024142,1.31,473.3668305,Rural settings,"Population <1,000,000",AFR,8/29/2011,3/25/2012,,admin2,14587,3.0,-1.332278,29.07111
afr::cod::nordkivu::kirotshehealthdistrict,4,Monday,25,3.36056298,880,1.648010285,9.0,1.022727273,weekly,COD,533977.3,1050.024142,1.78,508.538117,Rural settings,"Population <1,000,000",AFR,11/26/2012,5/19/2013,,admin2,14587,7.0,-1.332278,29.07111
afr::cod::nordkivu::kirotshehealthdistrict,5,Monday,23,3.36056298,608,1.101689896,1.0,0.164473684,weekly,COD,551879.4,1050.024142,1.58,525.5873441,Rural settings,"Population <1,000,000",AFR,9/9/2013,2/16/2014,,admin2,14587,17.0,-1.332278,29.07111
afr::cod::nordkivu::kirotshehealthdistrict,7,Monday,29,3.36056298,3280,5.051285272,9.0,0.274390244,weekly,COD,649339.7,1050.024142,2.17,618.4045433,Rural settings,"Population <1,000,000",AFR,7/31/2017,2/18/2018,,admin2,14587,10.0,-1.332278,29.07111
afr::cod::nordkivu::kyondohealthdistrict,1,Monday,18,5.551410303,97,2.490318076,3.0,3.092783505,weekly,COD,38950.8,896.9967528,1.96,43.42356857,Rural settings,"Population <100,000",AFR,3/22/2010,7/25/2010,,admin2,14588,4.0,0.1967137,29.63172
afr::cod::nordkivu::luberohealthdistrict,1,Monday,9,1.142040613,162,0.888670302,5.0,3.086419753,weekly,COD,182294.8,1775.570882,2.16,102.6682752,Rural settings,"Population <1,000,000",AFR,5/2/2011,7/3/2011,,admin2,14589,4.0,-0.04098456,29.00011
afr::cod::nordkivu::masisihealthdistrict,1,Monday,27,6.816851732,561,4.517496144,13.0,2.317290553,weekly,COD,124183.8,1133.934687,1.61,109.5158314,Rural settings,"Population <1,000,000",AFR,12/31/2012,7/7/2013,,admin2,14591,10.0,-1.310417,28.94042
afr::cod::nordkivu::mutwangahealthdistrict,3,Monday,21,2.711989129,302,3.993574494,5.0,1.655629139,weekly,COD,75621.5,1829.382024,2.17,41.33718327,Rural settings,"Population <100,000",AFR,1/23/2012,6/17/2012,,admin2,14593,7.0,-0.1398561,29.60195
afr::cod::nordkivu::mwesohealthdistrict,11,Monday,9,7.658002304,342,1.791398635,12.0,3.50877193,weekly,COD,190912.3,864.0511603,2.34,220.950227,Rural settings,"Population <1,000,000",AFR,10/9/2017,12/10/2017,,admin2,14594,3.0,-1.031446,28.94441
afr::cod::nordkivu::mwesohealthdistrict,6,Monday,89,7.658002304,2446,18.16572417,1.0,0.040883074,weekly,COD,134649.2,864.0511603,1.54,155.834754,Rural settings,"Population <1,000,000",AFR,1/31/2011,10/14/2012,,admin2,14594,18.0,-1.031446,28.94441
afr::cod::nordkivu::mwesohealthdistrict,7,Monday,8,7.658002304,166,1.054144258,0.0,0.0,weekly,COD,157473.7,864.0511603,1.68,182.2504352,Rural settings,"Population <1,000,000",AFR,10/21/2013,12/15/2013,,admin2,14594,4.0,-1.031446,28.94441
afr::cod::nordkivu::pingahealthdistrict,3,Monday,16,2.536491636,222,2.50325438,4.0,1.801801802,weekly,COD,88684.6,7778.393715,2.12,11.40140282,Rural settings,"Population <100,000",AFR,2/8/2010,5/30/2010,,admin2,14597,14.0,-0.5709677,28.80711
afr::cod::nordkivu::pingahealthdistrict,4,Monday,18,2.536491636,292,3.182128046,2.0,0.684931507,weekly,COD,91762.5,7778.393715,1.46,11.79710148,Rural settings,"Population <100,000",AFR,6/13/2011,10/16/2011,,admin2,14597,5.0,-0.5709677,28.80711
afr::cod::nordkivu::rutshuruhealthdistrict,1,Monday,25,2.42490885,206,0.928324727,0.0,0.0,weekly,COD,221905.1,1031.150009,2.01,215.2015692,Rural settings,"Population <1,000,000",AFR,10/8/2012,3/31/2013,,admin2,14598,13.0,-1.003774,29.36431
afr::cod::nordkivu::rwangubahealthdistrict,2,Monday,16,6.509653612,287,4.819557833,1.0,0.348432056,weekly,COD,59549.0,493.2417383,1.74,120.7298478,Rural settings,"Population <100,000",AFR,3/29/2010,7/18/2010,,admin2,14599,8.0,-1.050519,29.59376
afr::cod::nordkivu::rwangubahealthdistrict,3,Monday,10,6.509653612,48,0.794216439,0.0,0.0,weekly,COD,60436.9,493.2417383,2.05,122.5299793,Rural settings,"Population <100,000",AFR,5/23/2011,7/31/2011,,admin2,14599,3.0,-1.050519,29.59376
afr::cod::nordkivu::rwangubahealthdistrict,4,Monday,17,6.509653612,1040,18.3081405,7.0,0.673076923,weekly,COD,56805.3,493.2417383,1.94,115.167261,Rural settings,"Population <100,000",AFR,6/4/2012,9/30/2012,,admin2,14599,4.0,-1.050519,29.59376
afr::cod::nordkivu::vuhovihealthdistrict,1,Monday,12,0.683390035,197,3.294916165,11.0,5.583756345,weekly,COD,59789.1,791.108018,1.7,75.57640504,Rural settings,"Population <100,000",AFR,10/10/2011,1/1/2012,,admin2,14600,4.0,0.1605444,29.22382
afr::cod::nordkivu::walikalehealthdistrict,1,Monday,3,0.347993684,10,0.049792176,1.0,10.0,weekly,COD,200834.8,7608.648358,1.87,26.39559493,Rural settings,"Population <1,000,000",AFR,9/7/2015,9/27/2015,,admin2,14601,3.0,-0.5390659,27.97903
afr::cod::nordubangi::bilihealthdistrict,2,Monday,19,2.653435914,446,2.685220628,40.0,8.968609865,weekly,COD,166094.4,5696.308383,1.78,29.15825282,Rural settings,"Population <1,000,000",AFR,5/30/2016,10/9/2016,,admin2,14985,9.0,4.767917904000058,19.45802731300006
afr::cod::orientale::angumuhealthdistrict,2,Monday,31,6.921670394,635,13.64123453,14.0,2.204724409,weekly,COD,46550.0,782.9955046,1.41,59.45117146,Rural settings,"Population <100,000",AFR,3/12/2012,10/14/2012,,admin2,14605,11.0,2.075164,31.02633
afr::cod::orientale::angumuhealthdistrict,3,Monday,18,6.921670394,91,1.749717274,5.0,5.494505495,weekly,COD,52008.4,782.9955046,1.74,66.42234814,Rural settings,"Population <100,000",AFR,8/12/2013,12/15/2013,,admin2,14605,3.0,2.075164,31.02633
afr::cod::orientale::bogahealthdistrict,1,Monday,11,0.47010544,32,0.651471808,0.0,0.0,weekly,COD,49119.5,1059.114402,1.83,46.37789828,Rural settings,"Population <100,000",AFR,9/10/2012,11/25/2012,,admin2,14612,4.0,1.165148,29.90819
afr::cod::orientale::bondohealthdistrict,2,Monday,27,1.938885098,383,4.397880829,2.0,0.522193211,weekly,COD,87087.4,8820.536196,1.77,9.873254649,Rural settings,"Population <100,000",AFR,1/23/2012,7/29/2012,,admin2,14899,16.0,4.82923,23.83407
afr::cod::orientale::isangihealthdistrict,1,Monday,9,1.040540998,172,1.31278239,5.0,2.906976744,weekly,COD,131019.4,2148.232837,2.55,60.9893852,Rural settings,"Population <1,000,000",AFR,3/26/2012,5/27/2012,,admin2,14618,3.0,1.035866,24.70322
afr::cod::orientale::likatihealthdistrict,1,Monday,7,0.587972909,29,0.371472884,0.0,0.0,weekly,COD,78067.6,13085.39802,1.77,5.96600882,Rural settings,"Population <100,000",AFR,5/28/2012,7/15/2012,,admin2,14908,3.0,3.733151,23.24
afr::cod::orientale::lingahealthdistrict,1,Monday,22,0.580100911,64,0.546543095,1.0,1.5625,weekly,COD,117099.6,583.3041899,1.84,200.752201,Rural settings,"Population <1,000,000",AFR,5/28/2012,10/28/2012,,admin2,14623,6.0,1.925507,30.91442
afr::cod::orientale::litahealthdistrict,1,Monday,19,0.509558658,88,0.84815841,12.0,13.63636364,weekly,COD,103754.2,482.7080546,1.77,214.9419282,Rural settings,"Population <1,000,000",AFR,5/7/2012,9/16/2012,,admin2,14624,3.0,1.593673,30.48864
afr::cod::orientale::logohealthdistrict,1,Monday,11,0.198731518,46,0.192213348,8.0,17.39130435,weekly,COD,239317.4,266.7059991,1.84,897.3079001,Rural settings,"Population <1,000,000",AFR,5/7/2012,7/22/2012,,admin2,14625,3.0,2.162822,30.9934
afr::cod::orientale::lowahealthdistrict,1,Monday,12,9.379909905,623,14.89323734,31.0,4.975922953,weekly,COD,41831.1,15026.5966,1.23,2.783804019,Rural settings,"Population <100,000",AFR,2/28/2011,5/22/2011,,admin2,14910,3.0,-0.4965434,26.27088
afr::cod::orientale::lowahealthdistrict,2,Monday,13,9.379909905,272,7.098094314,4.0,1.470588235,weekly,COD,38320.1,15026.5966,1.56,2.550151642,Rural settings,"Population <100,000",AFR,4/2/2012,7/1/2012,,admin2,14910,3.0,-0.4965434,26.27088
afr::cod::orientale::lubungahealthdistrict,1,Monday,13,1.082978621,316,1.52848862,17.0,5.379746835,weekly,COD,206740.2,3767.544629,2.29,54.87398833,Rural settings,"Population <1,000,000",AFR,2/21/2011,5/22/2011,,admin2,14626,4.0,0.5464799,24.99461
afr::cod::orientale::lubungahealthdistrict,3,Monday,16,1.082978621,194,0.867880805,5.0,2.577319588,weekly,COD,223533.0,3767.544629,1.35,59.33121489,Rural settings,"Population <1,000,000",AFR,4/2/2012,7/22/2012,,admin2,14626,3.0,0.5464799,24.99461
afr::cod::orientale::makisokisanganihealthdistrict,1,Monday,6,0.122505073,6,0.012726089,0.0,0.0,weekly,COD,471472.4,500.6467342,1.95,941.7267063,Rural settings,"Population <1,000,000",AFR,7/2/2012,8/12/2012,,admin2,14986,3.0,0.460067165890533,25.239204906908
afr::cod::orientale::mangobohealthdistrict,1,Monday,14,0.22193518,12,0.565066268,1.0,8.333333333,weekly,COD,21236.4,108.6418608,2.06,195.4716151,Rural settings,"Population <100,000",AFR,2/28/2011,6/5/2011,,admin2,14628,3.0,0.6393568,25.16118
afr::cod::orientale::nizihealthdistrict,1,Monday,16,0.280832305,110,0.679817859,0.0,0.0,weekly,COD,161808.0,302.1710535,2.1,535.4847796,Rural settings,"Population <1,000,000",AFR,3/5/2012,6/24/2012,,admin2,14631,4.0,1.803752,30.37875
afr::cod::orientale::nyarambehealthdistrict,1,Monday,27,2.791425495,374,1.9468675,9.0,2.406417112,weekly,COD,192103.5,572.9292759,1.61,335.3005477,Rural settings,"Population <1,000,000",AFR,5/7/2012,11/11/2012,,admin2,14633,9.0,2.288541,31.19932
afr::cod::orientale::nyarambehealthdistrict,2,Monday,36,2.791425495,287,1.344313553,12.0,4.181184669,weekly,COD,213491.9,572.9292759,1.62,372.6322061,Rural settings,"Population <1,000,000",AFR,3/18/2013,11/24/2013,,admin2,14633,3.0,2.288541,31.19932
afr::cod::orientale::rethyhealthdistrict,1,Monday,13,0.41650015,37,0.15359898,2.0,5.405405405,weekly,COD,240887.0,664.7453671,1.64,362.374846,Rural settings,"Population <1,000,000",AFR,9/2/2013,12/1/2013,,admin2,14635,3.0,2.137401,30.65002
afr::cod::orientale::tchomiahealthdistrict,3,Monday,42,17.67144432,1400,28.46120041,19.0,1.357142857,weekly,COD,49189.8,438.9565552,1.53,112.0607482,Rural settings,"Population <100,000",AFR,1/9/2012,10/28/2012,,admin2,14638,3.0,1.696902,30.70706
afr::cod::orientale::tchomiahealthdistrict,5,Monday,22,17.67144432,402,8.172430404,4.0,0.995024876,weekly,COD,49189.8,438.9565552,1.62,112.0607482,Rural settings,"Population <100,000",AFR,12/31/2012,6/2/2013,,admin2,14638,10.0,1.696902,30.70706
afr::cod::orientale::yahumahealthdistrict,1,Monday,16,0.401717872,125,0.898402876,12.0,9.6,weekly,COD,139135.8,21474.5481,2.49,6.47910258,Rural settings,"Population <1,000,000",AFR,6/4/2012,9/23/2012,,admin2,14641,3.0,2.04996,22.68087
afr::cod::orientale::yakusuhealthdistrict,2,Monday,13,0.576250986,86,0.618964631,3.0,3.488372093,weekly,COD,138941.7,3603.306915,1.83,38.5594964,Rural settings,"Population <1,000,000",AFR,4/25/2011,7/24/2011,,admin2,14642,3.0,0.9830531,24.89863
afr::cod::sudkivu,1,Monday,5,2.669743977,689,0.126876177,,,weekly,COD,5430491.5,64149.10902,1.43,84.65419993,Rural settings,"Population >1,000,000",AFR,12/26/2016,1/29/2017,,admin1,7717,3.0,-3.280101,29.23769
afr::cod::sudkivu,4,Monday,22,2.669743977,4468,0.73827871,,,weekly,COD,6051915.0,64149.10902,1.43,94.34137266,Rural settings,"Population >1,000,000",AFR,8/26/2019,1/26/2020,,admin1,7717,3.0,-3.280101,29.23769
afr::cod::sudkivu::bunyakirihealthdistrict,2,Monday,37,1.31342485,340,4.400911288,1.0,0.294117647,weekly,COD,77256.7,1663.816443,1.98,46.43342739,Rural settings,"Population <100,000",AFR,1/18/2010,10/3/2010,,admin2,14988,14.0,-1.748572,28.69033
afr::cod::sudkivu::bunyakirihealthdistrict,3,Monday,5,1.31342485,16,0.166366738,0.0,0.0,weekly,COD,96173.1,1663.816443,1.99,57.80271039,Rural settings,"Population <100,000",AFR,9/19/2011,10/23/2011,,admin2,14988,3.0,-1.748572,28.69033
afr::cod::sudkivu::fizihealthdistrict,1,Monday,12,10.63881099,772,2.527601389,0.0,0.0,weekly,COD,305427.9,8226.060666,1.76,37.12930313,Rural settings,"Population <1,000,000",AFR,11/4/2013,1/26/2014,,admin2,14989,5.0,-3.854606,29.2254
afr::cod::sudkivu::fizihealthdistrict,3,Monday,12,10.63881099,822,2.512003258,4.0,0.486618005,weekly,COD,327228.9,8226.060666,1.99,39.77953887,Rural settings,"Population <1,000,000",AFR,12/14/2015,3/6/2016,,admin2,14989,4.0,-3.854606,29.2254
afr::cod::sudkivu::fizihealthdistrict,4,Monday,15,10.63881099,793,2.323711851,2.0,0.25220681,weekly,COD,341264.3,8226.060666,1.55,41.48575045,Rural settings,"Population <1,000,000",AFR,11/21/2016,3/5/2017,,admin2,14989,7.0,-3.854606,29.2254
afr::cod::sudkivu::fizihealthdistrict::mwangaza,1,Monday,6,16.56539408,43,5.426224567,0.0,0.0,weekly,COD,7924.5,8.742575393,2.29,906.4262696,Rural settings,"Population <10,000",AFR,3/28/2011,5/8/2011,,admin3,15033,3.0,-4.097231173739999,29.092289792600127
afr::cod::sudkivu::fizihealthdistrict::mwangaza,2,Monday,40,16.56539408,105,13.25008324,0.0,0.0,weekly,COD,7924.5,8.742575393,1.88,906.4262696,Rural settings,"Population <10,000",AFR,7/25/2011,4/29/2012,,admin3,15033,5.0,-4.097231173739999,29.092289792600127
afr::cod::sudkivu::fizihealthdistrict::sebele,1,Monday,55,53.75974551,195,38.53951304,0.0,0.0,weekly,COD,5059.7,127.890958,1.87,39.56260927,Rural settings,"Population <10,000",AFR,1/24/2011,2/12/2012,,admin3,15034,8.0,-4.29497646432992,29.059697738999944
afr::cod::sudkivu::fizihealthdistrict::sebele,2,Monday,38,53.75974551,170,30.91441805,0.0,0.0,weekly,COD,5499.1,127.890958,1.69,42.99834864,Rural settings,"Population <10,000",AFR,4/9/2012,12/30/2012,,admin3,15034,3.0,-4.29497646432992,29.059697738999944
afr::cod::sudkivu::kabarehealthdistrict,1,Monday,14,2.762209167,440,3.129403154,0.0,0.0,weekly,COD,140601.9,576.4104473,1.56,243.926703,Rural settings,"Population <1,000,000",AFR,12/5/2011,3/11/2012,,admin2,14665,3.0,-2.429693,28.81231
afr::cod::sudkivu::kabarehealthdistrict,3,Monday,4,2.762209167,98,0.488302652,2.0,2.040816327,weekly,COD,200695.2,576.4104473,1.41,348.1810591,Rural settings,"Population <1,000,000",AFR,12/16/2019,1/12/2020,,admin2,14665,3.0,-2.429693,28.81231
afr::cod::sudkivu::kalehehealthdistrict,3,Monday,12,0.651715516,270,0.847177844,0.0,0.0,weekly,COD,318705.2,1179.410954,1.63,270.2240461,Rural settings,"Population <1,000,000",AFR,10/21/2019,1/12/2020,,admin2,14667,11.0,-1.958352,28.91029
afr::cod::sudkivu::kalongehealthdistrict,1,Monday,12,1.300353044,232,2.614253881,3.0,1.293103448,weekly,COD,88744.3,883.2374778,2.63,100.4761485,Rural settings,"Population <100,000",AFR,4/4/2011,6/26/2011,,admin2,14669,3.0,-2.217798,28.53588
afr::cod::sudkivu::kamitugahealthdistrict,1,Monday,22,1.576130713,282,2.065343495,2.0,0.709219858,weekly,COD,136539.0,2196.254699,1.57,62.16901895,Rural settings,"Population <1,000,000",AFR,6/17/2013,11/17/2013,,admin2,14670,3.0,-3.54865003169644,28.3294202105503
afr::cod::sudkivu::kaniolahealthdistrict,1,Monday,10,0.814323206,19,0.267694355,0.0,0.0,weekly,COD,70976.5,942.6810027,1.76,75.29217179,Rural settings,"Population <100,000",AFR,3/29/2010,6/6/2010,,admin2,14671,3.0,-2.384171,28.34238
afr::cod::sudkivu::katanahealthdistrict,3,Monday,42,7.72620962,473,5.528687096,4.0,0.845665962,weekly,COD,85553.8,310.7298304,1.66,275.3317887,Rural settings,"Population <100,000",AFR,3/15/2010,1/2/2011,,admin2,14672,25.0,-2.145276,28.76911
afr::cod::sudkivu::katanahealthdistrict,4,Monday,15,7.72620962,399,4.484570722,2.0,0.501253133,weekly,COD,88971.7,310.7298304,1.73,286.3313763,Rural settings,"Population <100,000",AFR,10/17/2011,1/29/2012,,admin2,14672,3.0,-2.145276,28.76911
afr::cod::sudkivu::katanahealthdistrict,5,Monday,7,7.72620962,49,0.474045875,0.0,0.0,weekly,COD,103365.5,310.7298304,1.74,332.6539324,Rural settings,"Population <1,000,000",AFR,8/3/2015,9/20/2015,,admin2,14672,3.0,-2.145276,28.76911
afr::cod::sudkivu::kitutuhealthdistrict,2,Monday,30,0.381503582,142,0.773156628,1.0,0.704225352,weekly,COD,183662.7,2729.504385,1.96,67.28793,Rural settings,"Population <1,000,000",AFR,7/1/2013,1/26/2014,,admin2,14675,18.0,-3.086094,27.91294
afr::cod::sudkivu::lemerahealthdistrict,1,Monday,6,1.035765084,24,0.113314005,0.0,0.0,weekly,COD,211800.8,686.2406855,1.76,308.6392347,Rural settings,"Population <1,000,000",AFR,8/13/2012,9/23/2012,,admin2,14676,3.0,-2.739011,28.91781
afr::cod::sudkivu::lemerahealthdistrict,2,Monday,9,1.035765084,52,0.23476654,1.0,1.923076923,weekly,COD,221496.6,686.2406855,1.81,322.7680968,Rural settings,"Population <1,000,000",AFR,4/1/2013,6/2/2013,,admin2,14676,3.0,-2.739011,28.91781
afr::cod::sudkivu::minovahealthdistrict,1,Monday,13,5.378889723,530,1.914997593,11.0,2.075471698,weekly,COD,276762.8,635.9277987,1.81,435.2110421,Rural settings,"Population <1,000,000",AFR,10/25/2010,1/23/2011,,admin2,14679,3.0,-1.582563,29.0493
afr::cod::sudkivu::minovahealthdistrict,11,Monday,31,5.378889723,3529,8.991724966,5.0,0.141683196,weekly,COD,392472.0,635.9277987,2.49,617.1644026,Rural settings,"Population <1,000,000",AFR,7/31/2017,3/4/2018,,admin2,14679,3.0,-1.582563,29.0493
afr::cod::sudkivu::minovahealthdistrict,2,Monday,22,5.378889723,419,1.363720459,0.0,0.0,weekly,COD,307247.7,635.9277987,1.54,483.1487169,Rural settings,"Population <1,000,000",AFR,8/27/2012,1/27/2013,,admin2,14679,19.0,-1.582563,29.0493
afr::cod::sudkivu::minovahealthdistrict,3,Monday,7,5.378889723,166,0.535092477,0.0,0.0,weekly,COD,310226.8,635.9277987,1.51,487.8333682,Rural settings,"Population <1,000,000",AFR,4/22/2013,6/9/2013,,admin2,14679,3.0,-1.582563,29.0493
afr::cod::sudkivu::minovahealthdistrict,8,Monday,47,5.378889723,1535,4.947993685,5.0,0.325732899,weekly,COD,310226.8,635.9277987,1.41,487.8333682,Rural settings,"Population <1,000,000",AFR,9/2/2013,7/27/2014,,admin2,14679,17.0,-1.582563,29.0493
afr::cod::sudkivu::minovahealthdistrict,9,Monday,7,5.378889723,146,0.459916487,1.0,0.684931507,weekly,COD,317448.9,635.9277987,1.84,499.1901607,Rural settings,"Population <1,000,000",AFR,10/20/2014,12/7/2014,,admin2,14679,3.0,-1.582563,29.0493
afr::cod::sudkivu::mitimurhesahealthdistrict,2,Monday,14,4.639564377,99,1.212387245,0.0,0.0,weekly,COD,81657.1,261.5071759,1.96,312.255676,Rural settings,"Population <100,000",AFR,3/29/2010,7/4/2010,,admin2,14680,3.0,-2.437136,28.87164
afr::cod::sudkivu::mitimurhesahealthdistrict,4,Monday,18,4.639564377,392,4.744842716,1.0,0.255102041,weekly,COD,82616.0,261.5071759,1.77,315.922497,Rural settings,"Population <100,000",AFR,10/3/2011,2/5/2012,,admin2,14680,3.0,-2.437136,28.87164
afr::cod::sudkivu::mitimurhesahealthdistrict,5,Monday,14,4.639564377,119,1.226099334,0.0,0.0,weekly,COD,97055.8,261.5071759,1.78,371.1401022,Rural settings,"Population <100,000",AFR,10/6/2014,1/11/2015,,admin2,14680,8.0,-2.437136,28.87164
afr::cod::sudkivu::mitimurhesahealthdistrict,6,Monday,17,4.639564377,465,4.282973898,0.0,0.0,weekly,COD,108569.4,261.5071759,2.14,415.1679572,Rural settings,"Population <1,000,000",AFR,10/9/2017,2/4/2018,,admin2,14680,5.0,-2.437136,28.87164
afr::cod::sudkivu::mwanahealthdistrict,1,Monday,17,1.077083303,125,4.20949499,3.0,2.4,weekly,COD,29694.8,467.1352591,2.04,63.56788408,Rural settings,"Population <100,000",AFR,12/12/2011,4/8/2012,,admin2,14682,6.0,-2.777708,28.68135
afr::cod::sudkivu::nunduhealthdistrict,1,Monday,7,9.108603532,70,1.051505337,0.0,0.0,weekly,COD,66571.2,1607.588328,1.57,41.41060173,Rural settings,"Population <100,000",AFR,1/25/2010,3/14/2010,,admin2,14684,3.0,-3.550505,29.1439
afr::cod::sudkivu::nunduhealthdistrict,2,Monday,43,9.108603532,444,6.669548136,2.0,0.45045045,weekly,COD,66571.2,1607.588328,1.57,41.41060173,Rural settings,"Population <100,000",AFR,8/30/2010,6/26/2011,,admin2,14684,10.0,-3.550505,29.1439
afr::cod::sudkivu::nunduhealthdistrict,3,Monday,5,9.108603532,28,0.438055805,0.0,0.0,weekly,COD,63918.8,1607.588328,1.67,39.76067684,Rural settings,"Population <100,000",AFR,3/12/2012,4/15/2012,,admin2,14684,3.0,-3.550505,29.1439
afr::cod::sudkivu::nunduhealthdistrict,4,Monday,25,9.108603532,267,4.177174995,1.0,0.374531835,weekly,COD,63918.8,1607.588328,2.16,39.76067684,Rural settings,"Population <100,000",AFR,11/26/2012,5/19/2013,,admin2,14684,18.0,-3.550505,29.1439
afr::cod::sudkivu::nunduhealthdistrict,5,Monday,8,9.108603532,123,1.728612456,2.0,1.62601626,weekly,COD,71155.3,1607.588328,2.34,44.26214023,Rural settings,"Population <100,000",AFR,12/23/2013,2/16/2014,,admin2,14684,3.0,-3.550505,29.1439
afr::cod::sudkivu::nunduhealthdistrict,7,Monday,18,9.108603532,234,3.088561978,7.0,2.991452991,weekly,COD,75763.4,1607.588328,1.58,47.12860792,Rural settings,"Population <100,000",AFR,11/17/2014,3/22/2015,,admin2,14684,13.0,-3.550505,29.1439
afr::cod::sudkivu::nunduhealthdistrict,8,Monday,12,9.108603532,139,1.550844235,0.0,0.0,weekly,COD,89628.6,1607.588328,1.51,55.75345282,Rural settings,"Population <100,000",AFR,2/5/2018,4/29/2018,,admin2,14684,3.0,-3.550505,29.1439
afr::cod::sudkivu::nyangezihealthdistrict,1,Monday,11,0.536489662,224,1.274931351,0.0,0.0,weekly,COD,175695.7,206.479119,1.68,850.9126775,Rural settings,"Population <1,000,000",AFR,4/1/2013,6/16/2013,,admin2,14685,3.0,-2.661015,28.89709
afr::cod::sudkivu::ruzizihealthdistrict,2,Monday,8,2.607015454,81,0.423038217,0.0,0.0,weekly,COD,191472.1,535.164566,1.74,357.781722,Rural settings,"Population <1,000,000",AFR,9/20/2010,11/14/2010,,admin2,14687,5.0,-2.936806,29.13361
afr::cod::sudkivu::ruzizihealthdistrict,3,Monday,13,2.607015454,236,1.089554545,2.0,0.847457627,weekly,COD,216602.3,535.164566,2.27,404.7396142,Rural settings,"Population <1,000,000",AFR,12/19/2011,3/18/2012,,admin2,14687,4.0,-2.936806,29.13361
afr::cod::sudkivu::ruzizihealthdistrict,4,Monday,17,2.607015454,234,0.930228456,2.0,0.854700855,weekly,COD,251551.1,535.164566,1.59,470.0443863,Rural settings,"Population <1,000,000",AFR,1/7/2013,5/5/2013,,admin2,14687,4.0,-2.936806,29.13361
afr::cod::sudkivu::ruzizihealthdistrict,5,Monday,6,2.607015454,90,0.320449805,1.0,1.111111111,weekly,COD,280855.2,535.164566,1.49,524.8015617,Rural settings,"Population <1,000,000",AFR,9/4/2017,10/15/2017,,admin2,14687,3.0,-2.936806,29.13361
afr::cod::sudkivu::uvirahealthdistrict,3,Monday,35,17.80345217,1406,9.758062216,10.0,0.711237553,weekly,COD,144086.0,564.7912539,1.38,255.1137239,Rural settings,"Population <1,000,000",AFR,4/5/2010,12/5/2010,,admin2,14688,24.0,-3.322594,29.19188
afr::cod::sudkivu::uvirahealthdistrict,4,Monday,14,17.80345217,472,4.002737041,0.0,0.0,weekly,COD,117919.3,564.7912539,1.22,208.7838634,Rural settings,"Population <1,000,000",AFR,1/9/2012,4/15/2012,,admin2,14688,3.0,-3.322594,29.19188
afr::cod::sudkivu::uvirahealthdistrict,9,Monday,16,17.80345217,531,3.704491783,2.0,0.376647834,weekly,COD,143339.5,564.7912539,2.08,253.7919966,Rural settings,"Population <1,000,000",AFR,7/18/2016,11/6/2016,,admin2,14688,3.0,-3.322594,29.19188
afr::cod::sudkivu::uvirahealthdistrict::kalunducepac,1,Monday,17,26.02209823,45,8.580709177,0.0,0.0,weekly,COD,5244.3,6.821953568,1.84,768.7387414,Rural settings,"Population <10,000",AFR,3/12/2012,7/8/2012,,admin3,15050,3.0,-3.4183300159999703,29.132200019000038
afr::cod::sudkivu::uvirahealthdistrict::kavimvira,1,Monday,12,10.50282414,39,2.354636179,0.0,0.0,weekly,COD,16563.1,55.24575418,1.71,299.8076548,Rural settings,"Population <100,000",AFR,10/7/2013,12/29/2013,,admin3,15048,3.0,-3.354013302999931,29.158518727000057
afr::cod::sudkivu::uvirahealthdistrict::kilomoni,1,Monday,12,23.83200898,61,5.826160771,0.0,0.0,weekly,COD,10470.0,15.32402625,1.74,683.240803,Rural settings,"Population <100,000",AFR,2/8/2010,5/2/2010,,admin3,15047,3.0,-3.3545729919999303,29.15964359000003
afr::cod::sudkivu::uvirahealthdistrict::kilomoni,2,Monday,11,23.83200898,20,3.039671347,0.0,0.0,weekly,COD,6579.7,15.32402625,1.97,429.3714911,Rural settings,"Population <10,000",AFR,4/9/2012,6/24/2012,,admin3,15047,3.0,-3.3545729919999303,29.15964359000003
afr::cod::sudkivu::uvirahealthdistrict::kilomoni,3,Monday,6,23.83200898,37,5.189381682,0.0,0.0,weekly,COD,7129.9,15.32402625,1.92,465.2758931,Rural settings,"Population <10,000",AFR,11/18/2013,12/29/2013,,admin3,15047,5.0,-3.3545729919999303,29.15964359000003
afr::cod::sudkivu::uvirahealthdistrict::tanganyika,1,Monday,13,22.11989474,26,4.49080308,0.0,0.0,weekly,COD,5789.6,13.39115233,1.9,432.3451677,Rural settings,"Population <10,000",AFR,8/30/2010,11/28/2010,,admin3,15040,3.0,-3.388235295999948,29.137710737000077
afr::cod::sudkivu::uvirahealthdistrict::tanganyika,2,Monday,31,22.11989474,27,6.523323276,0.0,0.0,weekly,COD,4139.0,13.39115233,1.97,309.0846776,Rural settings,"Population <10,000",AFR,11/12/2012,6/16/2013,,admin3,15040,8.0,-3.388235295999948,29.137710737000077
afr::cod::sudkivu::uvirahealthdistrict::tanganyika,3,Monday,15,22.11989474,14,3.382463921,0.0,0.0,weekly,COD,4139.0,13.39115233,2.02,309.0846776,Rural settings,"Population <10,000",AFR,9/16/2013,12/29/2013,,admin3,15040,3.0,-3.388235295999948,29.137710737000077
afr::cod::tanganyika,1,Monday,24,2.027341109,3004,0.770169618,,,weekly,COD,3900439.5,132706.6702,2.01,29.39143522,Rural settings,"Population >1,000,000",AFR,12/19/2016,6/4/2017,,admin1,14692,3.0,-7.339121,26.35816
afr::cod::tanganyika,2,Monday,15,2.027341109,2572,0.604166659,,,weekly,COD,4257103.5,132706.6702,1.4,32.07904692,Rural settings,"Population >1,000,000",AFR,8/28/2017,12/10/2017,,admin1,14692,5.0,-7.339121,26.35816
afr::cod::tanganyika,5,Monday,37,2.027341109,4498,0.968066399,,,weekly,COD,4646375.5,132706.6702,1.35,35.01237348,Rural settings,"Population >1,000,000",AFR,9/3/2018,5/19/2019,,admin1,14692,7.0,-7.339121,26.35816
afr::cod::tanganyika,6,Monday,12,2.027341109,1523,0.300320819,,,weekly,COD,5071243.5,132706.6702,1.42,38.21393071,Rural settings,"Population >1,000,000",AFR,8/12/2019,11/3/2019,,admin1,14692,5.0,-7.339121,26.35816
afr::cod::tanganyika::kansimbahealthdistrict,1,Monday,7,1.117083577,256,1.262992815,15.0,5.859375,weekly,COD,202693.2,10099.73188,2.73,20.06916643,Rural settings,"Population <1,000,000",AFR,12/5/2016,1/22/2017,,admin2,14695,3.0,-6.506698,29.49567
afr::cod::tshopo,1,Monday,7,1.813938401,431,0.127264256,5.0,1.160092807,weekly,COD,3386654.0,200478.8753,1.41,16.89282222,Rural settings,"Population >1,000,000",AFR,12/2/2019,1/19/2020,,admin1,14703,3.0,-1.968557,25.02449
afr::cod::tshopo::basokohealthdistrict,1,Monday,14,6.473916417,756,9.427088676,24.0,3.174603175,weekly,COD,80194.4,1624.083079,2.68,49.37826213,Rural settings,"Population <100,000",AFR,2/15/2016,5/22/2016,,admin2,14705,5.0,1.296532,23.81943
afr::cod::tshopo::opalahealthdistrict,1,Monday,11,5.579407557,249,2.076300121,11.0,4.417670683,weekly,COD,119924.9,17828.90429,1.5,6.726431308,Rural settings,"Population <1,000,000",AFR,7/25/2016,10/9/2016,,admin2,14711,7.0,-1.980783,24.59839
afr::cod::tshopo::yabaondohealthdistrict,1,Monday,5,2.984892738,57,0.259755351,6.0,10.52631579,weekly,COD,219437.3,4759.013318,1.82,46.10983104,Rural settings,"Population <1,000,000",AFR,10/10/2016,11/13/2016,,admin2,14716,3.0,1.10362,23.70992
afr::cod::tshopo::yakusuhealthdistrict,2,Monday,10,1.747828351,657,3.350815781,10.0,1.522070015,weekly,COD,196071.7,3603.306915,2.23,54.41437674,Rural settings,"Population <1,000,000",AFR,11/11/2019,1/19/2020,,admin2,14719,6.0,0.9830531,24.89863
afr::cog::likouala::betou,2,Monday,11,33.44440916,251,10.49318337,6.0,2.390438247,weekly,COG,23920.3,3639.592879,1.63,6.572246071,Rural settings,"Population <100,000",AFR,1/23/2012,4/8/2012,251.0,admin2,15271,5.0,3.61011,18.53564
afr::cog::likouala::impfondo,1,Monday,10,10.02130863,32,1.68226558,5.0,15.625,weekly,COG,19022.0,2183.649872,1.87,8.71110348,Rural settings,"Population <100,000",AFR,3/26/2012,6/3/2012,32.0,admin2,15249,3.0,1.8435790000000338,18.051706000000024
afr::eth::afar,1,daily_group,12,1.365254656,1004,0.594340842,4.0,0.398406375,daily,ETH,1689266.4,94556.87821,1.53,17.86508218,Rural settings,"Population >1,000,000",AFR,9/12/2016,12/4/2016,0.0,admin1,16614,7.57,11.64572,41.797
afr::eth::afar::zone1,1,daily_group,12,2.617543101,1783,3.430454385,33.0,1.850813236,daily,ETH,519756.2,32542.28374,2.62,15.97171865,Rural settings,"Population <1,000,000",AFR,5/21/2018,8/12/2018,35.0,admin2,16618,3.0,12.603415605000066,42.249942256000054
afr::eth::afar::zone1::afambo,1,daily_group,7,6.586297331,363,14.07502363,6.0,1.652892562,daily,ETH,25790.4,1709.912354,2.17,15.08287834,Rural settings,"Population <100,000",AFR,6/18/2018,8/5/2018,0.0,admin3,15556,3.43,11.60905,41.78917
afr::eth::afar::zone1::asaita,1,daily_group,12,8.265396099,1078,16.88959023,12.0,1.113172542,daily,ETH,63826.3,1677.24738,2.79,38.05419568,Rural settings,"Population <100,000",AFR,5/21/2018,8/12/2018,6.0,admin3,15557,3.0,11.67256,41.62635
afr::eth::afar::zone1::dubti,2,daily_group,11,4.02813374,216,2.317222846,0.0,0.0,daily,ETH,93215.0,7408.843662,2.1,12.5815855,Rural settings,"Population <100,000",AFR,9/12/2016,11/27/2016,0.0,admin3,15559,3.71,10.96289,41.59542
afr::eth::afar::zone1::mile,1,daily_group,6,1.843389973,121,1.471325027,3.0,2.479338843,daily,ETH,82238.8,4067.788313,1.41,20.21707957,Rural settings,"Population <100,000",AFR,6/4/2018,7/15/2018,9.0,admin3,15563,2.71,10.9581,41.26942
afr::eth::afar::zone2,1,daily_group,5,0.284814092,165,0.348862171,0.0,0.0,daily,ETH,472966.2,29871.38838,1.9,15.83341872,Rural settings,"Population <1,000,000",AFR,9/18/2017,10/22/2017,0.0,admin2,16632,3.14,14.49028,40.17299
afr::eth::afar::zone2::dalol,1,daily_group,5,0.289352264,24,0.331300487,0.0,0.0,daily,ETH,72441.8,2232.222703,1.63,32.45276553,Rural settings,"Population <100,000",AFR,9/26/2016,10/30/2016,0.0,admin3,15569,3.0,14.24486,40.62799
afr::eth::afar::zone2::erebti,1,daily_group,9,0.645578582,29,0.513921428,2.0,6.896551724,daily,ETH,56428.9,2613.389615,2.06,21.59222631,Rural settings,"Population <100,000",AFR,9/19/2016,11/20/2016,0.0,admin3,15570,4.0,13.58745,40.07036
afr::eth::afar::zone3,2,daily_group,29,2.836730063,965,4.311447339,9.0,0.932642487,daily,ETH,223822.8,15798.58669,2.34,14.16726726,Rural settings,"Population <1,000,000",AFR,7/18/2016,2/5/2017,0.0,admin2,16631,15.57,11.18451,40.85144
afr::eth::afar::zone4,1,daily_group,10,0.120042419,52,0.170422395,0.0,0.0,daily,ETH,305124.2,11141.99142,2.55,27.38506866,Rural settings,"Population <1,000,000",AFR,9/9/2019,11/17/2019,0.5,admin2,16634,2.43,12.88915,40.58913
afr::eth::afar::zone4::ewa,1,daily_group,8,0.35271384,52,0.807714695,0.0,0.0,daily,ETH,64379.2,1444.345005,2.55,44.57328393,Rural settings,"Population <100,000",AFR,9/9/2019,11/3/2019,0.5,admin3,15580,2.43,11.70725,39.91932
afr::eth::amhara,1,daily_group,11,0.192547506,2461,0.119346858,0.0,0.0,daily,ETH,20620568.0,155377.0619,1.22,132.7130771,Rural settings,"Population >1,000,000",AFR,8/29/2016,11/13/2016,1.0,admin1,16611,2.43,13.72192,36.47877
afr::eth::amhara::awi,1,daily_group,12,0.105754315,94,0.0794126,0.0,0.0,daily,ETH,1183691.3,9070.495293,1.66,130.499081,Rural settings,"Population >1,000,000",AFR,8/22/2016,11/13/2016,1.0,admin2,16652,6.57,12.05406,36.34367
afr::eth::amhara::awi,3,daily_group,17,0.105754315,74,0.06125592,0.0,0.0,daily,ETH,1208046.5,9070.495293,1.39,133.1841824,Rural settings,"Population >1,000,000",AFR,7/3/2017,10/29/2017,0.0,admin2,16652,3.0,12.05406,36.34367
afr::eth::amhara::awi::ankasha,1,daily_group,12,0.657948213,58,0.617141658,0.0,0.0,daily,ETH,93981.7,537.9821993,1.82,174.6929548,Rural settings,"Population <100,000",AFR,8/29/2016,11/20/2016,0.0,admin3,15590,5.57,10.72477,36.93622
afr::eth::amhara::awi::ankasha,3,daily_group,17,0.657948213,57,0.6013926,0.0,0.0,daily,ETH,94780.0,537.9821993,1.39,176.1768328,Rural settings,"Population <100,000",AFR,7/3/2017,10/29/2017,0.0,admin3,15590,3.0,10.72477,36.93622
afr::eth::amhara::centralgondar,2,daily_group,13,0.272769468,757,0.314926202,0.0,0.0,daily,ETH,2403737.8,20989.44998,1.92,114.5212382,Rural settings,"Population >1,000,000",AFR,8/15/2016,11/13/2016,0.0,admin2,16627,2.71,12.193316337000056,37.177159655000025
afr::eth::amhara::centralgondar,3,daily_group,10,0.272769468,374,0.152486104,2.0,0.534759358,daily,ETH,2452682.5,20989.44998,1.8,116.8531096,Rural settings,"Population >1,000,000",AFR,7/17/2017,9/24/2017,0.0,admin2,16627,4.71,12.193316337000056,37.177159655000025
afr::eth::amhara::centralgondar::gondarzuria,1,daily_group,12,0.323119855,92,0.603236598,0.0,0.0,daily,ETH,152510.6,1108.768227,2.08,137.5495764,Rural settings,"Population <1,000,000",AFR,8/15/2016,11/6/2016,0.0,admin3,15608,3.57,12.12238,37.64209
afr::eth::amhara::centralgondar::layarmacho,1,daily_group,13,0.106568048,41,0.212917815,0.0,0.0,daily,ETH,192562.6,1059.351658,1.9,181.7740111,Rural settings,"Population <1,000,000",AFR,8/15/2016,11/13/2016,0.0,admin3,15610,3.29,12.96607,37.43413
afr::eth::amhara::centralgondar::tsegede,1,daily_group,7,1.155539995,120,1.387286369,0.0,0.0,daily,ETH,86499.8,1879.401975,2.08,46.02517245,Rural settings,"Population <100,000",AFR,7/17/2017,9/3/2017,0.0,admin3,15614,4.71,13.592,36.51927
afr::eth::amhara::centralgondar::wegera,1,daily_group,11,0.684987114,209,0.943998103,0.0,0.0,daily,ETH,221398.8,1238.477778,1.38,178.7668733,Rural settings,"Population <1,000,000",AFR,8/29/2016,11/13/2016,0.0,admin3,15615,4.43,12.92509,37.83456
afr::eth::amhara::centralgondar::wegera,2,daily_group,9,0.684987114,86,0.380853055,1.0,1.162790698,daily,ETH,225808.9,1238.477778,1.96,182.3277769,Rural settings,"Population <1,000,000",AFR,7/31/2017,10/1/2017,0.0,admin3,15615,3.57,12.92509,37.83456
afr::eth::amhara::eastgojam,1,daily_group,8,0.07078679,67,0.025139003,1.0,1.492537313,daily,ETH,2665181.3,14081.30865,2.02,189.270853,Rural settings,"Population >1,000,000",AFR,8/7/2017,10/1/2017,4.0,admin2,16651,3.0,11.239158663000069,37.854185216000076
afr::eth::amhara::northgondar,2,daily_group,12,0.338286954,463,0.569520695,0.0,0.0,daily,ETH,812964.3,6855.075826,3.13,118.5930427,Rural settings,"Population <1,000,000",AFR,8/15/2016,11/6/2016,0.0,admin2,16640,2.71,12.90619,38.36158
afr::eth::amhara::northgondar::janamora,1,daily_group,12,0.344480144,127,0.748517676,0.0,0.0,daily,ETH,169668.7,1296.696732,2.24,130.8468633,Rural settings,"Population <1,000,000",AFR,8/15/2016,11/6/2016,0.0,admin3,15652,3.14,12.90619,38.36158
afr::eth::amhara::northshewa,1,daily_group,18,0.093600467,451,0.204985022,0.0,0.0,daily,ETH,2200160.8,16184.77079,2.25,135.940189,Rural settings,"Population >1,000,000",AFR,7/4/2016,11/6/2016,0.0,admin2,16650,3.86,10.74444,39.6882
afr::eth::amhara::northshewa::angolelanatera,1,daily_group,8,0.047227512,10,0.103428251,0.0,0.0,daily,ETH,96685.4,807.5365188,2.15,119.7288268,Rural settings,"Population <100,000",AFR,7/25/2016,9/18/2016,0.0,admin3,15663,3.57,9.605819,39.45914
afr::eth::amhara::northshewa::debreberhan,1,daily_group,7,0.057808516,12,0.101280519,0.0,0.0,daily,ETH,118482.8,146.3769126,1.79,809.436392,Rural settings,"Population <1,000,000",AFR,7/25/2016,9/11/2016,0.0,admin3,15670,3.0,9.597645,39.4638
afr::eth::amhara::northshewa::eferatanagidem,1,daily_group,6,0.043845887,9,0.07201687,0.0,0.0,daily,ETH,124970.7,511.1145077,2.01,244.5062664,Rural settings,"Population <1,000,000",AFR,10/3/2016,11/13/2016,0.0,admin3,15671,3.29,10.39511,39.94783
afr::eth::amhara::northshewa::hageremariam,1,daily_group,7,0.18184344,28,0.398237134,0.0,0.0,daily,ETH,70309.9,714.9431364,1.85,98.34334567,Rural settings,"Population <100,000",AFR,7/25/2016,9/11/2016,0.0,admin3,15674,3.71,9.322259,39.46452
afr::eth::amhara::northshewa::kewet,1,daily_group,7,0.162631553,44,0.356163101,0.0,0.0,daily,ETH,123538.9,756.6279502,2.2,163.2756231,Rural settings,"Population <1,000,000",AFR,8/22/2016,10/9/2016,0.0,admin3,15675,3.14,10.19648,39.83249
afr::eth::amhara::northshewa::menzkeyagabriel,1,daily_group,9,0.400098353,48,0.876215394,0.0,0.0,daily,ETH,54781.1,544.8162801,2.09,100.5496752,Rural settings,"Population <100,000",AFR,7/4/2016,9/4/2016,0.0,admin3,15678,2.43,10.33686,39.39876
afr::eth::amhara::northwello,1,daily_group,13,0.021348988,62,0.037795023,0.0,0.0,daily,ETH,1640427.6,11131.25852,2.01,147.3712606,Rural settings,"Population >1,000,000",AFR,8/1/2016,10/30/2016,0.0,admin2,16655,4.14,11.82128,39.43305
afr::eth::amhara::northwello::meket,1,daily_group,5,0.043190256,9,0.061281707,0.0,0.0,daily,ETH,146862.8,1331.77981,1.93,110.2755868,Rural settings,"Population <1,000,000",AFR,8/1/2016,9/4/2016,0.0,admin3,15701,3.14,11.89801,38.91283
afr::eth::amhara::oromiya,1,daily_group,12,0.11104439,133,0.241372383,0.0,0.0,daily,ETH,551015.8,3814.731684,1.76,144.4441826,Rural settings,"Population <1,000,000",AFR,8/1/2016,10/23/2016,0.0,admin2,16654,4.0,11.43681663700005,40.05192654900003
afr::eth::amhara::oromiya::artumafursi,1,daily_group,7,0.112585979,25,0.246563293,0.0,0.0,daily,ETH,101393.8,613.146455,2.01,165.3663642,Rural settings,"Population <1,000,000",AFR,8/8/2016,9/25/2016,0.0,admin3,15705,3.0,10.63101,40.0219
afr::eth::amhara::southgondar,1,daily_group,13,0.231049235,553,0.223568304,11.0,1.98915009,daily,ETH,2473517.0,14104.08313,3.01,175.3759516,Rural settings,"Population >1,000,000",AFR,7/3/2017,10/1/2017,4.0,admin2,16648,7.0,12.55254,38.42081
afr::eth::amhara::southgondar::dera,1,daily_group,11,0.825487338,289,1.189080441,0.0,0.0,daily,ETH,243045.0,1539.380737,1.81,157.8849171,Rural settings,"Population <1,000,000",AFR,7/24/2017,10/8/2017,0.0,admin3,15714,4.0,10.38509,38.74048
afr::eth::amhara::southgondar::semada,1,daily_group,7,0.545285224,181,0.982884622,9.0,4.972375691,daily,ETH,184151.8,1339.858462,3.01,137.4412337,Rural settings,"Population <1,000,000",AFR,7/3/2017,8/20/2017,4.0,admin3,15726,3.71,11.57095,38.25164
afr::eth::amhara::southwello,1,daily_group,14,0.007924164,39,0.012158557,0.0,0.0,daily,ETH,3207617.5,18535.69095,1.78,173.050873,Rural settings,"Population >1,000,000",AFR,7/25/2016,10/30/2016,0.0,admin2,16656,4.14,11.84943,39.35273
afr::eth::amhara::waghimra,1,daily_group,15,0.215936455,113,0.222361253,0.0,0.0,daily,ETH,508182.1,8918.570187,1.78,56.98022097,Rural settings,"Population <1,000,000",AFR,8/29/2016,12/11/2016,1.0,admin2,16653,8.71,13.29427475700004,38.66431720600008
afr::eth::amhara::waghimra::abergele,1,daily_group,23,1.584428844,103,1.803095638,0.0,0.0,daily,ETH,57124.0,1575.210347,1.78,36.26436311,Rural settings,"Population <100,000",AFR,8/29/2016,2/5/2017,1.0,admin3,15757,5.71,13.29427,38.66432
afr::eth::amhara::westgojam,1,daily_group,6,0.203194014,70,0.024710645,2.0,2.857142857,daily,ETH,2832787.3,13563.08647,1.52,208.8600781,Rural settings,"Population >1,000,000",AFR,3/20/2017,4/30/2017,13.0,admin2,16635,3.86,11.897846696000045,37.30807847600005
afr::eth::amhara::westgojam,3,daily_group,15,0.203194014,206,0.072719898,2.0,0.970873786,daily,ETH,2832787.3,13563.08647,1.59,208.8600781,Rural settings,"Population >1,000,000",AFR,6/19/2017,10/1/2017,0.0,admin2,16635,6.43,11.897846696000045,37.30807847600005
afr::eth::amhara::westgojam::bahirdarzuria,3,daily_group,24,1.592624597,214,1.542736018,4.0,1.869158879,daily,ETH,138714.6,1443.372714,1.45,96.104491,Rural settings,"Population <1,000,000",AFR,3/20/2017,9/3/2017,9.0,admin3,15762,19.43,11.94533,37.27271
afr::eth::amhara::westgondar,1,daily_group,12,1.345666105,421,1.487937621,0.0,0.0,daily,ETH,282942.0,15286.68386,1.98,18.50905027,Rural settings,"Population <1,000,000",AFR,8/22/2016,11/13/2016,0.0,admin2,16649,5.86,13.30765,36.5893
afr::eth::amhara::westgondar,2,daily_group,11,1.345666105,412,1.427607861,2.0,0.485436893,daily,ETH,288594.7,15286.68386,2.48,18.87882962,Rural settings,"Population <1,000,000",AFR,7/17/2017,10/1/2017,0.0,admin2,16649,4.29,13.30765,36.5893
afr::eth::amhara::westgondar::metema,1,daily_group,5,0.699320623,31,0.24482748,0.0,0.0,daily,ETH,126619.8,5326.195476,1.79,23.77302909,Rural settings,"Population <1,000,000",AFR,10/10/2016,11/13/2016,0.0,admin3,15782,3.57,13.26503,36.35742
afr::eth::amhara::westgondar::mirabarmacho,1,daily_group,12,11.78942528,291,12.9597264,0.0,0.0,daily,ETH,22454.2,1488.788551,1.95,15.08219551,Rural settings,"Population <100,000",AFR,8/22/2016,11/13/2016,0.0,admin3,15784,5.86,13.69069,36.48035
afr::eth::amhara::westgondar::mirabarmacho,2,daily_group,12,11.78942528,292,12.81728578,0.0,0.0,daily,ETH,22781.7,1488.788551,2.32,15.30217302,Rural settings,"Population <100,000",AFR,7/17/2017,10/8/2017,0.0,admin3,15784,5.0,13.69069,36.48035
afr::eth::benishangulgumuz,1,daily_group,10,0.221875685,244,0.239974134,16.0,6.557377049,daily,ETH,1016776.3,50237.03954,1.87,20.23957441,Rural settings,"Population >1,000,000",AFR,9/19/2016,11/27/2016,21.0,admin1,16680,5.43,8.96511,36.23862
afr::eth::benishangulgumuz::metekel,1,daily_group,11,0.254474799,223,0.535940818,16.0,7.174887892,daily,ETH,416090.7,25478.94105,1.59,16.33076897,Rural settings,"Population <1,000,000",AFR,9/12/2016,11/27/2016,18.0,admin2,16694,6.43,11.97025,35.97231
afr::eth::benishangulgumuz::metekel::wenbera,1,daily_group,25,0.707705321,123,1.551344844,14.0,11.38211382,daily,ETH,79286.0,7154.638234,2.18,11.08176226,Rural settings,"Population <100,000",AFR,9/5/2016,2/26/2017,7.0,admin3,15791,5.43,11.13685,35.82759
afr::eth::diredawa,1,daily_group,11,0.312125831,48,0.112403532,0.0,0.0,daily,ETH,427032.8,1053.55836,1.87,405.3242955,Rural settings,"Population <1,000,000",AFR,8/15/2016,10/30/2016,12.0,admin1,16682,9.29,9.656902,42.26265
afr::eth::diredawa,2,daily_group,6,0.312125831,99,0.226166847,1.0,1.01010101,daily,ETH,437729.9,1053.55836,1.7,415.4776011,Rural settings,"Population <1,000,000",AFR,9/18/2017,10/29/2017,1.0,admin1,16682,4.57,9.656902,42.26265
afr::eth::harari,3,daily_group,21,0.566761348,273,1.177082542,0.0,0.0,daily,ETH,231929.4,370.8335511,2.13,625.4272282,Rural settings,"Population <1,000,000",AFR,7/18/2016,12/11/2016,16.0,admin1,16693,5.43,9.384942,42.23808
afr::eth::harari::harari::direteyara,1,daily_group,19,1.115718072,24,2.350371807,0.0,0.0,daily,ETH,10211.2,11.36141122,2.0,898.7615889,Rural settings,"Population <100,000",AFR,8/1/2016,12/11/2016,0.0,admin3,15837,3.43,9.375746,42.15794
afr::eth::harari::harari::shenkor,1,daily_group,19,0.453909636,22,0.994062103,0.0,0.0,daily,ETH,22131.4,27.13932263,1.98,815.4735585,Rural settings,"Population <100,000",AFR,7/18/2016,11/27/2016,3.0,admin3,15841,1.71,9.375746,42.15794
afr::eth::harari::harari::sofi,2,daily_group,18,0.711655801,69,1.423190152,0.0,0.0,daily,ETH,48482.6,131.4546765,2.0,368.8160915,Rural settings,"Population <100,000",AFR,7/25/2016,11/27/2016,1.0,admin3,15842,4.57,9.299025,42.15208
afr::eth::oromia::arsi,1,daily_group,18,0.04606365,316,0.09353046,0.0,0.0,daily,ETH,3378578.5,20600.69908,1.93,164.0030995,Rural settings,"Population >1,000,000",AFR,8/22/2016,12/25/2016,0.0,admin2,16687,4.57,8.709593420000033,39.92012661500007
afr::eth::oromia::arsi::merti,1,daily_group,11,0.31270665,57,0.527502312,0.0,0.0,daily,ETH,108056.4,872.1942023,1.93,123.8902984,Rural settings,"Population <1,000,000",AFR,8/22/2016,11/6/2016,0.0,admin3,15860,4.14,8.661737,39.99024
afr::eth::oromia::bale,1,daily_group,9,0.463465075,172,0.093465378,0.0,0.0,daily,ETH,1840253.6,54710.27924,1.62,33.63634084,Rural settings,"Population >1,000,000",AFR,6/27/2016,8/28/2016,33.0,admin2,16622,7.0,8.15479085000004,41.33881144700007
afr::eth::oromia::bale,3,daily_group,30,0.463465075,1503,0.816735248,4.0,0.266134398,daily,ETH,1840253.6,54710.27924,1.62,33.63634084,Rural settings,"Population >1,000,000",AFR,12/5/2016,7/2/2017,2.0,admin2,16622,15.14,8.15479085000004,41.33881144700007
afr::eth::oromia::bale::berbere,1,daily_group,17,1.711972946,361,2.981605838,2.0,0.55401662,daily,ETH,121075.7,1569.155246,1.55,77.15979685,Rural settings,"Population <1,000,000",AFR,12/26/2016,4/23/2017,0.0,admin3,15872,7.0,6.852417,40.35242
afr::eth::oromia::bale::daweketchen,1,daily_group,12,0.453806964,51,0.531742883,0.0,0.0,daily,ETH,95911.0,1689.588052,1.69,56.76590805,Rural settings,"Population <100,000",AFR,2/13/2017,5/7/2017,0.0,admin3,15873,3.29,6.694146,41.07558
afr::eth::oromia::bale::goro,2,daily_group,26,1.74092024,435,3.621247671,0.0,0.0,daily,ETH,120124.3,1515.096656,1.63,79.28490867,Rural settings,"Population <1,000,000",AFR,12/5/2016,6/4/2017,0.0,admin3,15881,11.71,6.946135,40.72181
afr::eth::oromia::bale::guradamole,1,daily_group,8,1.182325073,107,2.589291909,1.0,0.934579439,daily,ETH,41324.0,5111.3431,1.77,8.084763474,Rural settings,"Population <100,000",AFR,1/23/2017,3/19/2017,0.0,admin3,15882,5.14,6.886961,40.38074
afr::eth::oromia::bale::harenabuluk,1,daily_group,15,0.526499603,119,1.133138154,0.0,0.0,daily,ETH,105018.1,1924.889136,1.75,54.55799923,Rural settings,"Population <1,000,000",AFR,3/27/2017,7/9/2017,0.0,admin3,15883,10.14,6.687968,39.62277
afr::eth::oromia::bale::medawelabu,1,daily_group,16,0.849076477,84,0.610041653,0.0,0.0,daily,ETH,137695.5,8804.248215,2.23,15.63966583,Rural settings,"Population <1,000,000",AFR,5/2/2016,8/21/2016,32.0,admin3,15885,7.86,6.372708,39.27672
afr::eth::oromia::bale::mena,1,daily_group,9,0.483529638,65,0.362727895,0.0,0.0,daily,ETH,179197.7,494.4114568,1.87,362.4464958,Rural settings,"Population <1,000,000",AFR,6/20/2016,8/21/2016,19.0,admin3,15886,4.14,7.899113,36.73153
afr::eth::oromia::bale::mena,2,daily_group,15,0.483529638,100,0.558042916,0.0,0.0,daily,ETH,179197.7,494.4114568,1.74,362.4464958,Rural settings,"Population <1,000,000",AFR,11/21/2016,3/5/2017,0.0,admin3,15886,5.29,7.899113,36.73153
afr::eth::oromia::borena,3,daily_group,35,0.352008897,356,0.746766166,1.0,0.280898876,daily,ETH,476722.2,44224.49174,2.0,10.77959703,Rural settings,"Population <1,000,000",AFR,11/2/2015,7/3/2016,38.0,admin2,16677,14.57,5.289681640000026,38.13619917600005
afr::eth::oromia::borena::moyale,3,daily_group,35,6.159695243,324,12.91388432,1.0,0.308641975,daily,ETH,25089.3,2677.982942,2.0,9.368730326,Rural settings,"Population <100,000",AFR,11/2/2015,7/3/2016,38.0,admin3,15903,14.57,4.134544,39.51667
afr::eth::oromia::eastharerge,3,daily_group,18,0.30200302,790,0.222051218,4.0,0.506329114,daily,ETH,3557737.8,24999.6019,1.33,142.3117782,Rural settings,"Population >1,000,000",AFR,8/22/2016,12/25/2016,10.0,admin2,16619,3.0,9.740663,42.71372
afr::eth::oromia::eastharerge,6,daily_group,29,0.30200302,1463,0.399194026,5.0,0.3417635,daily,ETH,3664884.5,24999.6019,1.4,146.5977144,Rural settings,"Population >1,000,000",AFR,3/27/2017,10/15/2017,0.0,admin2,16619,11.0,9.740663,42.71372
afr::eth::oromia::eastharerge::babile,2,daily_group,21,0.340893264,80,0.589105958,0.0,0.0,daily,ETH,135799.0,4879.345363,2.12,27.83139743,Rural settings,"Population <1,000,000",AFR,7/18/2016,12/11/2016,11.0,admin3,15919,13.86,9.352667,42.30836
afr::eth::oromia::eastharerge::babile,3,daily_group,8,0.340893264,15,0.10735247,0.0,0.0,daily,ETH,139726.6,4879.345363,2.13,28.63634148,Rural settings,"Population <1,000,000",AFR,8/28/2017,10/22/2017,0.0,admin3,15919,5.0,9.352667,42.30836
afr::eth::oromia::eastharerge::chinaksen,1,daily_group,8,1.056680943,101,0.81117219,0.0,0.0,daily,ETH,124511.2,1558.513364,1.77,79.89100567,Rural settings,"Population <1,000,000",AFR,10/10/2016,12/4/2016,0.0,admin3,15922,3.29,9.741258,42.71338
afr::eth::oromia::eastharerge::chinaksen,2,daily_group,8,1.056680943,112,0.87451209,0.0,0.0,daily,ETH,128071.4,1558.513364,2.86,82.17536208,Rural settings,"Population <1,000,000",AFR,5/22/2017,7/16/2017,0.0,admin3,15922,3.71,9.741258,42.71338
afr::eth::oromia::eastharerge::fedis,1,daily_group,21,0.300367498,43,0.403333333,0.0,0.0,daily,ETH,106611.6,700.2153472,2.02,152.255446,Rural settings,"Population <1,000,000",AFR,8/22/2016,1/15/2017,2.0,admin3,15925,3.43,9.229919,42.10925
afr::eth::oromia::eastharerge::girawa,1,daily_group,7,0.131456464,28,0.098776418,0.0,0.0,daily,ETH,283468.5,1107.495195,1.57,255.9546094,Rural settings,"Population <1,000,000",AFR,7/17/2017,9/3/2017,0.0,admin3,15926,2.14,9.260951,41.74477
afr::eth::oromia::eastharerge::golooda,1,daily_group,5,0.33047201,11,0.076973254,0.0,0.0,daily,ETH,142906.8,2047.938838,1.66,69.78079489,Rural settings,"Population <1,000,000",AFR,6/19/2017,7/23/2017,0.0,admin3,15927,2.86,8.864292,41.7383
afr::eth::oromia::eastharerge::gursum,1,daily_group,6,0.516505565,47,0.204808227,0.0,0.0,daily,ETH,229483.0,907.5548327,1.84,252.8585511,Rural settings,"Population <1,000,000",AFR,8/21/2017,10/1/2017,0.0,admin3,15930,3.57,9.374026,42.53914
afr::eth::oromia::eastharerge::haromaya,2,daily_group,24,0.57068116,280,1.072101327,1.0,0.357142857,daily,ETH,261169.3,509.1512342,2.31,512.9503426,Rural settings,"Population <1,000,000",AFR,3/6/2017,8/20/2017,5.0,admin3,15931,9.86,9.506623,41.99001
afr::eth::oromia::eastharerge::kombolcha,1,daily_group,12,0.611061706,37,0.243669958,0.0,0.0,daily,ETH,151844.7,299.7211562,2.04,506.6198927,Rural settings,"Population <1,000,000",AFR,8/29/2016,11/20/2016,1.0,admin3,15935,2.57,9.53753,42.23169
afr::eth::oromia::eastharerge::kombolcha,2,daily_group,7,0.611061706,152,0.976176497,2.0,1.315789474,daily,ETH,155709.5,299.7211562,2.24,519.5145447,Rural settings,"Population <1,000,000",AFR,8/14/2017,10/1/2017,0.0,admin3,15935,5.0,9.53753,42.23169
afr::eth::oromia::eastharerge::kurfachele,1,daily_group,7,0.864093557,55,0.703166186,0.0,0.0,daily,ETH,78217.6,243.0183177,1.87,321.8588654,Rural settings,"Population <100,000",AFR,11/14/2016,1/1/2017,0.0,admin3,15937,3.86,9.301254,41.87283
afr::eth::oromia::eastharerge::melkabelo,1,daily_group,6,0.040538156,9,0.038675005,0.0,0.0,daily,ETH,232708.4,1390.50679,1.78,167.3550979,Rural settings,"Population <1,000,000",AFR,10/3/2016,11/13/2016,0.0,admin3,15938,2.86,9.001132,41.52537
afr::eth::oromia::eastshewa,1,daily_group,17,0.081149154,359,0.177716647,2.0,0.557103064,daily,ETH,2020069.6,9803.900357,2.01,206.047545,Rural settings,"Population >1,000,000",AFR,7/11/2016,11/6/2016,23.0,admin2,16686,5.14,7.370724677000055,38.89102660200007
afr::eth::oromia::eastshewa::boset,1,daily_group,12,0.187192062,57,0.315772772,2.0,3.50877193,daily,ETH,180509.5,1332.083796,1.6,135.5091178,Rural settings,"Population <1,000,000",AFR,8/8/2016,10/30/2016,1.0,admin3,15947,3.86,8.718188,39.29306
afr::eth::oromia::eastshewa::fentale,1,daily_group,6,0.30015793,40,0.350584463,0.0,0.0,daily,ETH,114095.2,1463.53365,1.36,77.95871315,Rural settings,"Population <1,000,000",AFR,9/12/2016,10/23/2016,0.0,admin3,15949,3.0,8.863014,40.0951
afr::eth::oromia::eastwellega,1,daily_group,10,0.039396652,117,0.074240781,1.0,0.854700855,daily,ETH,1575953.3,13654.16178,2.27,115.4192638,Rural settings,"Population >1,000,000",AFR,10/10/2016,12/18/2016,6.0,admin2,16697,3.86,10.362340819000053,36.76661190300007
afr::eth::oromia::eastwellega::limu,1,daily_group,10,0.324728145,110,0.662940764,0.0,0.0,daily,ETH,165927.3,354.5136402,2.27,468.0420756,Rural settings,"Population <1,000,000",AFR,10/10/2016,12/18/2016,6.0,admin3,15966,3.86,7.685566,37.88618
afr::eth::oromia::finfinezuria,1,daily_group,17,0.25580696,475,0.536268699,3.0,0.631578947,daily,ETH,885750.0,4448.930857,2.14,199.0927772,Rural settings,"Population <1,000,000",AFR,6/13/2016,10/9/2016,223.0,admin2,16674,6.57,9.511463,38.65388
afr::eth::oromia::finfinezuria::legetafolegedadi,2,daily_group,15,1.772341978,93,3.881428933,1.0,1.075268817,daily,ETH,23960.2,32.38824042,2.01,739.7808491,Rural settings,"Population <100,000",AFR,6/27/2016,10/9/2016,45.0,admin3,15979,4.29,9.030687,38.89665
afr::eth::oromia::guji,2,daily_group,22,0.143384876,346,0.256206861,7.0,2.023121387,daily,ETH,1350471.3,17247.26346,2.14,78.30061291,Rural settings,"Population >1,000,000",AFR,3/21/2016,8/21/2016,33.0,admin2,16675,5.0,6.422796938000033,38.60645512900004
afr::eth::oromia::guji::adolarede,1,daily_group,7,0.318429482,14,0.097383048,0.0,0.0,daily,ETH,143762.2,1213.230276,1.72,118.4953944,Rural settings,"Population <1,000,000",AFR,6/20/2016,8/7/2016,1.0,admin3,15987,3.14,6.155746,38.96857
afr::eth::oromia::guji::adolarede,2,daily_group,7,0.318429482,99,0.628285895,1.0,1.01010101,daily,ETH,157571.6,1213.230276,2.54,129.8777348,Rural settings,"Population <1,000,000",AFR,12/9/2019,1/26/2020,0.0,admin3,15987,3.0,6.155746,38.96857
afr::eth::oromia::guji::liben,1,daily_group,12,0.656502091,112,1.412516079,1.0,0.892857143,daily,ETH,79291.1,2645.119746,2.13,29.97637446,Rural settings,"Population <100,000",AFR,3/28/2016,6/19/2016,17.0,admin3,15998,4.0,5.552902,39.67629
afr::eth::oromia::guji::wadera,1,daily_group,15,0.398211117,33,0.625624291,1.0,3.03030303,daily,ETH,52747.3,953.3618062,1.8,55.32768321,Rural settings,"Population <100,000",AFR,5/2/2016,8/14/2016,1.0,admin3,16004,3.43,5.981212,39.38309
afr::eth::oromia::northshewa,2,daily_group,16,0.11821459,205,0.131834419,2.0,0.975609756,daily,ETH,1554980.9,9103.243938,1.94,170.81613,Rural settings,"Population >1,000,000",AFR,7/25/2016,11/13/2016,1.0,admin2,16681,7.57,10.379552492000073,38.75293030900008
afr::eth::oromia::northshewa,3,daily_group,7,0.11821459,49,0.030591323,2.0,4.081632653,daily,ETH,1601761.4,9103.243938,1.82,175.9550124,Rural settings,"Population >1,000,000",AFR,8/21/2017,10/8/2017,0.0,admin2,16681,3.43,10.379552492000073,38.75293030900008
afr::eth::oromia::northshewa::warajarso,1,daily_group,10,0.115083938,36,0.202286629,0.0,0.0,daily,ETH,177965.3,1175.171764,2.26,151.4376923,Rural settings,"Population <1,000,000",AFR,7/25/2016,10/2/2016,0.0,admin3,16076,3.71,10.0549,38.43567
afr::eth::oromia::southwestshewa,1,daily_group,10,0.10193553,271,0.222418081,2.0,0.73800738,daily,ETH,1218426.1,5762.677293,1.83,211.4340328,Rural settings,"Population >1,000,000",AFR,7/25/2016,10/2/2016,13.0,admin2,16691,3.57,8.923766293000028,38.12869489600007
afr::eth::oromia::southwestshewa::kersanamalima,1,daily_group,8,0.436658703,89,0.956282559,0.0,0.0,daily,ETH,93068.7,610.2910939,1.98,152.4988664,Rural settings,"Population <100,000",AFR,7/25/2016,9/18/2016,10.0,admin3,16084,2.86,8.634764,38.69845
afr::eth::oromia::southwestshewa::sododaci,1,daily_group,11,0.922648236,141,2.020599637,3.0,2.127659574,daily,ETH,69781.3,429.6997252,2.37,162.395496,Rural settings,"Population <100,000",AFR,7/18/2016,10/2/2016,3.0,admin3,16086,3.43,8.576829,38.6006
afr::eth::oromia::westarsi,2,daily_group,31,0.102450424,277,0.107211119,2.0,0.722021661,daily,ETH,2583687.3,12578.28392,1.85,205.408569,Rural settings,"Population >1,000,000",AFR,8/29/2016,4/2/2017,0.0,admin2,16673,25.43,7.704692637000051,38.85537634600007
afr::eth::oromia::westarsi,4,daily_group,19,0.102450424,171,0.060558021,2.0,1.169590643,daily,ETH,2823738.3,12578.28392,1.72,224.4931278,Rural settings,"Population >1,000,000",AFR,8/26/2019,1/5/2020,0.5,admin2,16673,3.43,7.704692637000051,38.85537634600007
afr::eth::oromia::westarsi::shala,2,daily_group,15,0.154826661,29,0.1477952,1.0,3.448275862,daily,ETH,196217.5,829.0605577,2.02,236.6745085,Rural settings,"Population <1,000,000",AFR,9/23/2019,1/5/2020,0.0,admin3,16121,11.57,7.346536,38.56929
afr::eth::oromia::westarsi::shashemene,2,daily_group,15,0.226108624,72,0.243139257,1.0,1.388888889,daily,ETH,296126.6,702.4109093,2.22,421.585992,Rural settings,"Population <1,000,000",AFR,6/27/2016,10/9/2016,5.0,admin3,16124,3.71,7.370298,38.5982
afr::eth::oromia::westarsi::shashemene,3,daily_group,11,0.226108624,38,0.117969237,0.0,0.0,daily,ETH,322117.9,702.4109093,1.94,458.5889765,Rural settings,"Population <1,000,000",AFR,10/14/2019,12/29/2019,0.0,admin3,16124,4.57,7.370298,38.5982
afr::eth::oromia::westarsi::wondo,2,daily_group,14,2.344520272,108,4.112388324,2.0,1.851851852,daily,ETH,26262.1,75.31251151,1.97,348.7083284,Rural settings,"Population <100,000",AFR,8/29/2016,12/4/2016,0.0,admin3,16126,3.57,7.103589,38.68312
afr::eth::oromia::westguji,2,daily_group,14,0.123198898,216,0.174111723,1.0,0.462962963,daily,ETH,1240582.8,9613.859501,1.35,129.0410787,Rural settings,"Population >1,000,000",AFR,7/4/2016,10/9/2016,1.0,admin2,16685,3.0,6.359842,38.28823
afr::eth::oromia::westguji::abaya,2,daily_group,14,0.865374541,215,1.439416066,1.0,0.465116279,daily,ETH,149366.1,1837.795342,1.35,81.27461017,Rural settings,"Population <1,000,000",AFR,7/4/2016,10/9/2016,1.0,admin3,16127,3.0,6.54962,37.95266
afr::eth::oromia::westharerge,1,daily_group,8,0.268150107,103,0.042563465,4.0,3.883495146,daily,ETH,2419915.8,17519.30634,2.33,138.1285168,Rural settings,"Population >1,000,000",AFR,10/17/2016,12/11/2016,2.0,admin2,16623,2.0,9.448646,40.88999
